{
  "itinerary": [
    {
      "day": 1,
      "date": "2025-09-24",
      "area": "梅田",
      "theme": "近代建築とショッピング",
      "schedule": [
        {
          "time": "10:30",
          "activity_name": "梅田スカイビル 空中庭園展望台",
          "type": "activity",
          "description": "梅田スカイビルの展望台で大阪の街並みを一望します。",
          "price": "1500円",
          "url": "https://www.skybldg.co.jp/sky/",
          "lat": 34.7055,
          "lon": 135.4901
        },
        {
          "time": "12:00",
          "activity_name": "梅田 薬膳火鍋 たん火鍋",
          "type": "meal",
          "description": "薬膳の風味を楽しめるヘルシーな火鍋ランチ。",
          "price": "2500円",
          "url": "https://yakuzengengokudoni.com",
          "lat": 34.7025,
          "lon": 135.4959
        },
        {
          "time": "14:00",
          "activity_name": "ショッピング",
          "type": "activity",
          "description": "地下街や百貨店でショッピングを楽しみます。",
          "price": "0円",
          "url": "",
          "lat": 34.7023,
          "lon": 135.4955
        },
        {
          "time": "18:30",
          "activity_name": "かに道楽 梅田店",
          "type": "meal",
          "description": "新鮮な蟹料理を楽しむディナー。",
          "price": "3000円",
          "url": "https://www.kaniDoraku.co.jp",
          "lat": 34.7013,
          "lon": 135.4974
        }
      ],
      "total_cost": 7000
    },
    {
      "day": 2,
      "date": "2025-09-25",
      "area": "難波",
      "theme": "下町グルメと文化体験",
      "schedule": [
        {
          "time": "09:00",
          "activity_name": "ホテルモントレ グラスミア大阪で朝食",
          "type": "hotel",
          "description": "宿泊しているホテルでの朝食",
          "price": "無料",
          "url": "https://www.hotelmonterey.co.jp/grasmere/osaka/",
          "lat": 34.6654,
          "lon": 135.499
        },
        {
          "time": "10:00",
          "activity_name": "なんばパークス",
          "type": "activity",
          "description": "ショッピングやエンターテイメントが楽しめる施設",
          "price": "無料",
          "url": "https://www.nambaparks.com/",
          "lat": 34.6633,
          "lon": 135.5012
        },
        {
          "time": "12:00",
          "activity_name": "かに道楽 難波本店でランチ",
          "type": "meal",
          "description": "和食・カニ料理の名店でランチ",
          "price": "3,000円",
          "url": "https://www.kani Doraku.co.jp/",
          "lat": 34.6689,
          "lon": 135.5016
        },
        {
          "time": "14:00",
          "activity_name": "道頓堀観光",
          "type": "activity",
          "description": "道頓堀エリアを散策しながら食べ歩き",
          "price": "無料",
          "url": "https://www.dotonbori.or.jp/",
          "lat": 34.6687,
          "lon": 135.5014
        },
        {
          "time": "18:30",
          "activity_name": "串カツ田中 難波店でディナー",
          "type": "meal",
          "description": "居酒屋で大阪名物の串カツを堪能",
          "price": "2,000円",
          "url": "https://www.kushikatsu-tanaka.com/",
          "lat": 34.6648,
          "lon": 135.5009
        }
      ],
      "total_cost": 5000
    }
  ]
}
