{
  "新宿御苑 新宿 東京 日本": {
    "lat": 35.6891835,
    "lon": 139.7068489,
    "display_name": "新宿御苑, 甲州街道, 新宿二丁目, 新宿, 新宿区, 東京都, 160-8484, 日本"
  },
  "大阪城公園 梅田 大阪 日本": {
    "lat": 35.0235553,
    "lon": 135.7414358,
    "display_name": "千本日活, 上長者町通, 武衛陣町, 高台院町, 上京区, 京都市, 京都府, 602-8288, 日本"
  },
  "大阪 日本": {
    "lat": 34.6937569,
    "lon": 135.5014539,
    "display_name": "大阪市, 大阪府, 日本"
  },
  "大阪城公園 天王寺 大阪 日本": {
    "lat": 34.6852779,
    "lon": 135.5238204,
    "display_name": "大阪城公園案内図, 上町筋, 大阪城, 中央区, 大阪市, 大阪府, 540-0012, 日本"
  },
  "大阪王将 天王寺店 天王寺 大阪 日本": {
    "lat": 35.0235553,
    "lon": 135.7414358,
    "display_name": "千本日活, 上長者町通, 武衛陣町, 高台院町, 上京区, 京都市, 京都府, 602-8288, 日本"
  },
  "大阪城公園 大阪市内全般 大阪 日本": {
    "lat": 35.0235553,
    "lon": 135.7414358,
    "display_name": "千本日活, 上長者町通, 武衛陣町, 高台院町, 上京区, 京都市, 京都府, 602-8288, 日本"
  },
  "大阪天満宮参拝 江坂 大阪 日本": {
    "lat": 35.0235553,
    "lon": 135.7414358,
    "display_name": "千本日活, 上長者町通, 武衛陣町, 高台院町, 上京区, 京都市, 京都府, 602-8288, 日本"
  },
  "天王寺動物園 天王寺 大阪 日本": {
    "lat": 34.6513468,
    "lon": 135.5103907,
    "display_name": "天王寺動物公園事務所, 和氣橋, 茶臼山町, 天王寺区, 大阪市, 大阪府, 543-0063, 日本"
  }
}
