{
  "新宿御苑 新宿 東京 日本": {
    "lat": 35.6891835,
    "lon": 139.7068489,
    "display_name": "新宿御苑, 甲州街道, 新宿二丁目, 新宿, 新宿区, 東京都, 160-8484, 日本"
  },
  "大阪城公園 梅田 大阪 日本": {
    "lat": 35.0235553,
    "lon": 135.7414358,
    "display_name": "千本日活, 上長者町通, 武衛陣町, 高台院町, 上京区, 京都市, 京都府, 602-8288, 日本"
  },
  "大阪 日本": {
    "lat": 34.6937569,
    "lon": 135.5014539,
    "display_name": "大阪市, 大阪府, 日本"
  },
  "大阪城公園 天王寺 大阪 日本": {
    "lat": 34.6852779,
    "lon": 135.5238204,
    "display_name": "大阪城公園案内図, 上町筋, 大阪城, 中央区, 大阪市, 大阪府, 540-0012, 日本"
  },
  "大阪王将 天王寺店 天王寺 大阪 日本": {
    "lat": 35.0235553,
    "lon": 135.7414358,
    "display_name": "千本日活, 上長者町通, 武衛陣町, 高台院町, 上京区, 京都市, 京都府, 602-8288, 日本"
  },
  "大阪城公園 大阪市内全般 大阪 日本": {
    "lat": 35.0235553,
    "lon": 135.7414358,
    "display_name": "千本日活, 上長者町通, 武衛陣町, 高台院町, 上京区, 京都市, 京都府, 602-8288, 日本"
  },
  "大阪天満宮参拝 江坂 大阪 日本": {
    "lat": 35.0235553,
    "lon": 135.7414358,
    "display_name": "千本日活, 上長者町通, 武衛陣町, 高台院町, 上京区, 京都市, 京都府, 602-8288, 日本"
  },
  "天王寺動物園 天王寺 大阪 日本": {
    "lat": 34.6513468,
    "lon": 135.5103907,
    "display_name": "天王寺動物公園事務所, 和氣橋, 茶臼山町, 天王寺区, 大阪市, 大阪府, 543-0063, 日本"
  },
  "大阪城観光 大阪駅・梅田周辺 大阪 日本": {
    "lat": 35.0235553,
    "lon": 135.7414358,
    "display_name": "千本日活, 上長者町通, 武衛陣町, 高台院町, 上京区, 京都市, 京都府, 602-8288, 日本"
  },
  "国立国際美術館 天王寺 大阪 日本": {
    "lat": 35.0088399,
    "lon": 135.7606212,
    "display_name": "NTT西日本 京都支店, 三条通, 桝屋町, 中京区, 京都市, 京都府, 604-8166, 日本"
  },
  "大阪城公園観光 天王寺 大阪 日本": {
    "lat": 35.0235553,
    "lon": 135.7414358,
    "display_name": "千本日活, 上長者町通, 武衛陣町, 高台院町, 上京区, 京都市, 京都府, 602-8288, 日本"
  },
  "天王寺動物園訪問 天王寺 大阪 日本": {
    "lat": 35.0040281,
    "lon": 135.7573085,
    "display_name": "京碁館, 四条通, 郭巨山町, 下京区, 京都市, 京都府, 600-8492, 日本"
  },
  "鶴橋風月 天王寺店 天王寺 大阪 日本": {
    "lat": 35.0040281,
    "lon": 135.7573085,
    "display_name": "京碁館, 四条通, 郭巨山町, 下京区, 京都市, 京都府, 600-8492, 日本"
  },
  "アパホテル〈天王寺駅前〉 天王寺 大阪 日本": {
    "lat": 34.9878004,
    "lon": 135.761548,
    "display_name": "アパホテル京都駅東３０５, 東洞院通, 塩小路町, 下京区, 京都市, 京都府, 600-8213, 日本"
  },
  "ディアモール大阪 難波 大阪 日本": {
    "lat": 34.6999975,
    "lon": 135.4977067,
    "display_name": "ディアモール大阪, 市道南北線, 梅田三丁目, 北区, 大阪市, 大阪府, 530-0001, 日本"
  },
  "なんばパークスシネマ 難波 大阪 日本": {
    "lat": 34.6608934,
    "lon": 135.5024336,
    "display_name": "なんばパークスシネマ, なんばカーニバルモール, 難波中二丁目, 浪速区, 大阪市, 大阪府, 542-8503, 日本"
  },
  "調布 日本": {
    "lat": 35.6517768,
    "lon": 139.5448061,
    "display_name": "調布, 調布駅前広場, 布田四丁目, 調布市, 東京都, 182-0026, 日本"
  },
  "東京 日本": {
    "lat": 35.6768601,
    "lon": 139.7638947,
    "display_name": "東京都, 日本"
  },
  "海鮮料理 魚信 伊勢市 伊勢 日本": {
    "lat": 38.4350934,
    "lon": 141.297101,
    "display_name": "中国海鮮料理 北園, 国道398号, 末広町, 石巻市, 宮城県, 986-0873, 日本"
  },
  "伊勢神宮 外宮 伊勢市 伊勢 日本": {
    "lat": 34.4873519,
    "lon": 136.7036975,
    "display_name": "伊勢神宮 外宮, 鳥羽松阪線, 本町, 伊勢市, 三重県, 516-0037, 日本"
  },
  "伊勢 日本": {
    "lat": 35.837787,
    "lon": 136.648485,
    "display_name": "伊勢, 大野市, 福井県, 日本"
  },
  "博多一幸舎 博多 福岡 日本": {
    "lat": 33.5882444,
    "lon": 130.4170779,
    "display_name": "博多一幸舎 総本店, 12, 博多区, 福岡市, 福岡県, 812-0011, 日本"
  },
  "ホテル日航福岡 博多 福岡 日本": {
    "lat": 33.5915085,
    "lon": 130.4171923,
    "display_name": "ホテル日航福岡, 大博通り, 博多駅前二丁目, 博多区, 福岡市, 福岡県, 812-0011, 日本"
  },
  "福岡 日本": {
    "lat": 36.7080711,
    "lon": 136.9317779,
    "display_name": "福岡, 福岡停車場線, 福岡町福岡, 福岡, 高岡市, 富山県, 939-0192, 日本"
  },
  "沖縄 日本": {
    "lat": 26.5707754,
    "lon": 128.0255901,
    "display_name": "沖縄県, 日本"
  },
  "アパホテル〈天王寺駅北〉 天王寺 大阪 日本": {
    "lat": 34.9878004,
    "lon": 135.761548,
    "display_name": "アパホテル京都駅東３０５, 東洞院通, 塩小路町, 下京区, 京都市, 京都府, 600-8213, 日本"
  },
  "祇園散策 祇園 京都 日本": {
    "lat": 35.0040011,
    "lon": 135.7568619,
    "display_name": "日本産業カウンセラー協会, 新町通, 御影町, 中京区, 京都市, 京都府, 600-8492, 日本"
  },
  "金閣寺観光 金閣寺 京都 日本": {
    "lat": 35.0235553,
    "lon": 135.7414358,
    "display_name": "千本日活, 上長者町通, 武衛陣町, 高台院町, 上京区, 京都市, 京都府, 602-8288, 日本"
  },
  "金閣寺前 銀閣寺 金閣寺 京都 日本": {
    "lat": 35.0235553,
    "lon": 135.7414358,
    "display_name": "千本日活, 上長者町通, 武衛陣町, 高台院町, 上京区, 京都市, 京都府, 602-8288, 日本"
  },
  "京都 日本": {
    "lat": 34.9861908,
    "lon": 135.7601217,
    "display_name": "京都, 東洞院通, 東塩小路高倉町, 下京区, 京都市, 京都府, 600-8213, 日本"
  },
  "かに道楽 梅田店 梅田 大阪 日本": {
    "lat": 35.0088423,
    "lon": 135.7671165,
    "display_name": "かに道楽, 寺町通, 天性寺前町, 中京区, 京都市, 京都府, 604-8091, 日本"
  },
  "なんばパークス 難波 大阪 日本": {
    "lat": 34.6616791,
    "lon": 135.5020843,
    "display_name": "なんばパークス, なんばカーニバルモール, 難波中二丁目, 浪速区, 大阪市, 大阪府, 542-8503, 日本"
  },
  "道頓堀観光 難波 大阪 日本": {
    "lat": 34.6524559,
    "lon": 135.3827722,
    "display_name": "道頓堀鉄板ステーキ 豊島家, 観光外周道路, 夢洲, 此花区, 大阪市, 大阪府, 554-8089, 日本"
  },
  "大阪城天守閣 梅田 大阪 日本": {
    "lat": 35.0235553,
    "lon": 135.7414358,
    "display_name": "千本日活, 上長者町通, 武衛陣町, 高台院町, 上京区, 京都市, 京都府, 602-8288, 日本"
  },
  "難波パークス 難波 大阪 日本": {
    "lat": 34.6622806,
    "lon": 135.5009819,
    "display_name": "難波パークス通り, 阪神高速1号環状線, 難波中二丁目, 浪速区, 大阪市, 大阪府, 556-8799, 日本"
  },
  "梅田スカイビル 空中庭園展望台 梅田 大阪 日本": {
    "lat": 34.7052993,
    "lon": 135.490172,
    "display_name": "〒531-6039 大阪府大阪市北区大淀中１丁目１−８８ 梅田スカイビル",
    "source": "gmaps_places"
  },
  "味噌汁屋 梅田店 梅田 大阪 日本": {
    "lat": 34.7014442,
    "lon": 135.4975445,
    "display_name": "〒530-8224 大阪府大阪市北区梅田１丁目１３−１３ 阪神百貨店 食品館 B1",
    "source": "gmaps_places"
  },
  "大阪駅シティ・ギャラリー 梅田 大阪 日本": {
    "lat": 34.702411,
    "lon": 135.495917,
    "display_name": "〒530-0001 大阪府大阪市北区梅田３丁目１−３",
    "source": "gmaps_places"
  },
  "鉄板焼 さくら 梅田 大阪 日本": {
    "lat": 34.703622,
    "lon": 135.498385,
    "display_name": "〒530-0017 大阪府大阪市北区角田町９−１０",
    "source": "gmaps_places"
  },
  "HEP FIVE観覧車 梅田 大阪 日本": {
    "lat": 34.7038153,
    "lon": 135.499969,
    "display_name": "〒530-0017 大阪府大阪市北区角田町５−１５ HEP FIVE 7F",
    "source": "gmaps_places"
  },
  "茶屋町のカフェ巡り 梅田 大阪 日本": {
    "lat": 34.7078018,
    "lon": 135.4982278,
    "display_name": "〒530-0013 大阪府大阪市北区茶屋町１５−２２ アーバンテラス A棟",
    "source": "gmaps_places"
  },
  "梅田スカイビル展望台 梅田 大阪 日本": {
    "lat": 34.7052872,
    "lon": 135.4896527,
    "display_name": "〒531-6023 大阪府大阪市北区大淀中１丁目１−８８",
    "source": "gmaps_places"
  },
  "梅田スカイビル 空中庭園 梅田 大阪 日本": {
    "lat": 34.7052993,
    "lon": 135.490172,
    "display_name": "〒531-6039 大阪府大阪市北区大淀中１丁目１−８８ 梅田スカイビル",
    "source": "gmaps_places"
  },
  "梅田スカイビル空中庭園展望台 梅田 大阪 日本": {
    "lat": 34.7052993,
    "lon": 135.490172,
    "display_name": "〒531-6039 大阪府大阪市北区大淀中１丁目１−８８ 梅田スカイビル",
    "source": "gmaps_places"
  },
  "大阪焼肉 鶴橋 風月 梅田店 梅田 大阪 日本": {
    "lat": 34.70170239999999,
    "lon": 135.5004102,
    "display_name": "〒530-0057 大阪府大阪市北区曾根崎２丁目１６−２２ ジャスミン曽根崎ビル B1～２F",
    "source": "gmaps_places"
  },
  "大阪城見学 梅田 大阪 日本": {
    "lat": 34.6872571,
    "lon": 135.5258546,
    "display_name": "〒540-0002 大阪府大阪市中央区大阪城１−１",
    "source": "gmaps_places"
  },
  "ラーメンはやし 梅田 大阪 日本": {
    "lat": 35.6908663,
    "lon": 139.7037047,
    "display_name": "〒160-0022 東京都新宿区新宿３丁目３１−５ 新宿ペガサス館",
    "source": "gmaps_places"
  },
  "茶房 梅田 梅田 大阪 日本": {
    "lat": 34.7090967,
    "lon": 135.5035903,
    "display_name": "〒530-0015 大阪府大阪市北区中崎西４丁目１−１８",
    "source": "gmaps_places"
  },
  "阪急うめだ本店 梅田 大阪 日本": {
    "lat": 34.7028186,
    "lon": 135.4985323,
    "display_name": "〒530-8350 大阪府大阪市北区角田町８−７",
    "source": "gmaps_places"
  },
  "イタリアンダイニング Ciao 梅田 大阪 日本": {
    "lat": 34.7060307,
    "lon": 135.4974921,
    "display_name": "〒530-0012 大阪府大阪市北区芝田１丁目３−１４ エンジェルビル 1F",
    "source": "gmaps_places"
  },
  "新梅田食堂街 魚米 梅田 大阪 日本": {
    "lat": 35.0235553,
    "lon": 135.7414358,
    "display_name": "千本日活, 上長者町通, 武衛陣町, 高台院町, 上京区, 京都市, 京都府, 602-8288, 日本",
    "source": "nominatim"
  },
  "梅田海鮮市場 梅田 大阪 日本": {
    "lat": 34.9333966,
    "lon": 135.7586426,
    "display_name": "日本生命伏見ビル, 竹田街道, 肥後町, 伏見区, 京都市, 京都府, 612-8355, 日本",
    "source": "nominatim"
  },
  "大阪ステーションシティシネマ 梅田 大阪 日本": {
    "lat": 34.703372,
    "lon": 135.4962387,
    "display_name": "大阪ステーションシティシネマ, 市道九条梅田線, 大深町, 北区, 大阪市, 大阪府, 530-8558, 日本",
    "source": "nominatim"
  },
  "一蘭 難波店 難波 大阪 日本": {
    "lat": 34.7027536,
    "lon": 135.5029299,
    "display_name": "一蘭拉麵 梅田阪急東通店, 阪急東通第3商店街, 堂山町, 北区, 大阪市, 大阪府, 530-0027, 日本",
    "source": "nominatim"
  },
  "串カツ田中 難波店 難波 大阪 日本": {
    "lat": 34.7258647,
    "lon": 135.4990233,
    "display_name": "田中, 423, 西中島三丁目, 淀川区, 大阪市, 大阪府, 532-0011, 日本",
    "source": "nominatim"
  },
  "アパホテル<天王寺駅前> 天王寺 大阪 日本": {
    "lat": 34.9878004,
    "lon": 135.761548,
    "display_name": "アパホテル京都駅東３０５, 東洞院通, 塩小路町, 下京区, 京都市, 京都府, 600-8213, 日本",
    "source": "nominatim"
  },
  "国立国際美術館 梅田 大阪 日本": {
    "lat": 34.9333966,
    "lon": 135.7586426,
    "display_name": "日本生命伏見ビル, 竹田街道, 肥後町, 伏見区, 京都市, 京都府, 612-8355, 日本",
    "source": "nominatim"
  },
  "うどん水野 梅田 大阪 日本": {
    "lat": 35.0049524,
    "lon": 135.7633681,
    "display_name": "富美家うどん, 錦小路通, 東魚屋町, 中京区, 京都市, 京都府, 600-8006, 日本",
    "source": "nominatim"
  },
  "串カツ田中 梅田 大阪 日本": {
    "lat": 34.7842989,
    "lon": 135.62873,
    "display_name": "串カツ田中, 香里センター街, 香里新町, 寝屋川市, 大阪府, 572-0085, 日本",
    "source": "nominatim"
  },
  "グリルド エイジングビーフ 梅田 梅田 大阪 日本": {
    "lat": 34.6951973,
    "lon": 135.4955155,
    "display_name": "〒530-0004 大阪府大阪市北区堂島浜２丁目１−４０ サントリービル 1F",
    "source": "gmaps_places"
  },
  "大阪王将 梅田店 梅田 大阪 日本": {
    "lat": 34.7020173,
    "lon": 135.5027588,
    "display_name": "〒530-0051 大阪府大阪市北区太融寺町６−９ 日野商事ビル",
    "source": "gmaps_places"
  },
  "梅田うどん屋 梅田 大阪 日本": {
    "lat": 34.6984768,
    "lon": 135.4992503,
    "display_name": "〒530-0001 大阪府大阪市北区梅田１丁目１ 大阪駅前第3ビル 地下2階",
    "source": "gmaps_places"
  },
  "大阪スカイビル展望台 梅田 大阪 日本": {
    "lat": 34.7052872,
    "lon": 135.4896527,
    "display_name": "〒531-6023 大阪府大阪市北区大淀中１丁目１−８８",
    "source": "gmaps_places"
  },
  "南銀座アーケード寿司 梅田 大阪 日本": {
    "lat": 34.7022466,
    "lon": 135.5015768,
    "display_name": "〒530-0018 大阪府大阪市北区小松原町1−2−７ 梅田エビスビル 101",
    "source": "gmaps_places"
  },
  "大阪城公園散策 梅田 大阪 日本": {
    "lat": 34.6864797,
    "lon": 135.5262114,
    "display_name": "〒540-0002 大阪府大阪市中央区大阪城１−１",
    "source": "gmaps_places"
  },
  "グランフロント大阪 らるきい 梅田 大阪 日本": {
    "lat": 34.7038664,
    "lon": 135.4949205,
    "display_name": "〒530-0011 大阪府大阪市北区大深町４−２０",
    "source": "gmaps_places"
  },
  "繁華街・心斎橋でショッピング 梅田 大阪 日本": {
    "lat": 34.6710169,
    "lon": 135.5013394,
    "display_name": "〒542-0085 大阪府大阪市中央区心斎橋筋２丁目２−２２",
    "source": "gmaps_places"
  },
  "梅田天空市場 梅田 大阪 日本": {
    "lat": 34.7052872,
    "lon": 135.4896527,
    "display_name": "〒531-6023 大阪府大阪市北区大淀中１丁目１−８８",
    "source": "gmaps_places"
  },
  "ホテルグランヴィア大阪 梅田 大阪 日本": {
    "lat": 34.701726,
    "lon": 135.4963754,
    "display_name": "〒530-0001 大阪府大阪市北区梅田３丁目１−１",
    "source": "gmaps_places"
  },
  "梅田スカイビルの空中庭園展望台 梅田 大阪 日本": {
    "lat": 34.7052993,
    "lon": 135.490172,
    "display_name": "〒531-6039 大阪府大阪市北区大淀中１丁目１−８８ 梅田スカイビル",
    "source": "gmaps_places"
  },
  "たこ焼き道楽 わなか 梅田店 梅田 大阪 日本": {
    "lat": 34.7041463,
    "lon": 135.5113644,
    "display_name": "〒530-0041 大阪府大阪市北区天神橋４丁目７−２１",
    "source": "gmaps_places"
  },
  "HEP FIVEの観覧車 梅田 大阪 日本": {
    "lat": 34.7038153,
    "lon": 135.499969,
    "display_name": "〒530-0017 大阪府大阪市北区角田町５−１５ HEP FIVE 7F",
    "source": "gmaps_places"
  },
  "串カツ田中 梅田店 梅田 大阪 日本": {
    "lat": 34.7069752,
    "lon": 135.4972504,
    "display_name": "〒530-0012 大阪府大阪市北区芝田１丁目８−１ DDハウス B1階",
    "source": "gmaps_places"
  },
  "お好み焼き きじ 梅田 大阪 日本": {
    "lat": 34.7047662,
    "lon": 135.4906238,
    "display_name": "〒531-0076 大阪府大阪市北区大淀中１丁目１−９０ 梅田スカイビル B1F",
    "source": "gmaps_places"
  },
  "とんかつまい泉 梅田 梅田 大阪 日本": {
    "lat": 34.7017041,
    "lon": 135.4963984,
    "display_name": "〒530-8202 大阪府大阪市北区梅田３丁目１−１",
    "source": "gmaps_places"
  },
  "大阪国際講堂のコンサート 梅田 大阪 日本": {
    "lat": 34.7016293,
    "lon": 135.4859804,
    "display_name": "〒531-8501 大阪府大阪市北区大淀南２丁目３−３",
    "source": "gmaps_places"
  },
  "大阪駅ナビ 梅田 大阪 日本": {
    "lat": 34.70179359999999,
    "lon": 135.5015149,
    "display_name": "〒530-0057 大阪府大阪市北区曾根崎２丁目１５−２９ ADビル梅田 6階",
    "source": "gmaps_places"
  },
  "梅田天ぷら八坂 梅田 大阪 日本": {
    "lat": 34.70258860000001,
    "lon": 135.4985289,
    "display_name": "〒530-8350 大阪府大阪市北区角田町８−７",
    "source": "gmaps_places"
  },
  "梅田焼肉 ホルモン海 梅田 大阪 日本": {
    "lat": 34.7076003,
    "lon": 135.4976153,
    "display_name": "〒530-0012 大阪府大阪市北区芝田１丁目１１−５",
    "source": "gmaps_places"
  },
  "嵐山竹林の小径散策 嵐山 京都 日本": {
    "lat": 35.0168187,
    "lon": 135.6713013,
    "display_name": "〒616-8394 京都府京都市右京区嵯峨小倉山田淵山町",
    "source": "gmaps_places"
  },
  "嵐山豆腐 茶寮 宝泉 嵐山 京都 日本": {
    "lat": 35.0144244,
    "lon": 135.6744413,
    "display_name": "〒616-8385 京都府京都市右京区 嵯峨天竜寺芒ノ馬場町45",
    "source": "gmaps_places"
  },
  "天龍寺 嵐山 京都 日本": {
    "lat": 35.0158379,
    "lon": 135.6737654,
    "display_name": "〒616-8385 京都府京都市右京区嵯峨天龍寺芒ノ馬場町６８",
    "source": "gmaps_places"
  },
  "川床料理 嵐山 渡月亭 嵐山 京都 日本": {
    "lat": 35.0111746,
    "lon": 135.6777993,
    "display_name": "〒616-0004 京都府京都市西京区嵐山中尾下町５４−４",
    "source": "gmaps_places"
  },
  "嵐山リゾート花灯路 嵐山 京都 日本": {
    "lat": 35.009449,
    "lon": 135.666773,
    "display_name": "京都府京都市右京区",
    "source": "gmaps_places"
  },
  "祇園の舞妓体験 祇園 京都 日本": {
    "lat": 35.0016904,
    "lon": 135.7788823,
    "display_name": "〒605-0825 京都府京都市東山区下河原町４９９−８",
    "source": "gmaps_places"
  },
  "祇園さと茂 祇園 京都 日本": {
    "lat": 34.9877427,
    "lon": 135.7581526,
    "display_name": "〒600-8216 京都府京都市下京区 西入東塩小路町579",
    "source": "gmaps_places"
  },
  "東山散策 祇園 京都 日本": {
    "lat": 35.0054778,
    "lon": 135.7736473,
    "display_name": "〒605-0087 京都府京都市東山区元吉町白川筋",
    "source": "gmaps_places"
  },
  "川床料理 松乃家 祇園 京都 日本": {
    "lat": 35.0036413,
    "lon": 135.772704,
    "display_name": "〒605-0075 京都府京都市東山区四条通大和大路西入中之町２１３",
    "source": "gmaps_places"
  },
  "大阪城観光 梅田 大阪 日本": {
    "lat": 34.6872571,
    "lon": 135.5258546,
    "display_name": "〒540-0002 大阪府大阪市中央区大阪城１−１",
    "source": "gmaps_places"
  },
  "心斎橋でのショッピング 梅田 大阪 日本": {
    "lat": 34.6710169,
    "lon": 135.5013394,
    "display_name": "〒542-0085 大阪府大阪市中央区心斎橋筋２丁目２−２２",
    "source": "gmaps_places"
  },
  "心斎橋ショッピング 心斎橋 大阪 日本": {
    "lat": 34.6710169,
    "lon": 135.5013394,
    "display_name": "〒542-0085 大阪府大阪市中央区心斎橋筋２丁目２−２２",
    "source": "gmaps_places"
  },
  "ビストロ ラトリエ 心斎橋 大阪 日本": {
    "lat": 34.6702597,
    "lon": 135.5009304,
    "display_name": "〒542-0085 大阪府大阪市中央区心斎橋筋２丁目６−１８ 早川ビル Ｂ１",
    "source": "gmaps_places"
  },
  "トトリ 心斎橋店 心斎橋 大阪 日本": {
    "lat": 34.6708991,
    "lon": 135.4983323,
    "display_name": "〒542-0086 大阪府大阪市中央区西心斎橋２丁目９−２８ 心斎橋bigstep south1・2階",
    "source": "gmaps_places"
  },
  "たこ焼き道楽 わかな 梅田 大阪 日本": {
    "lat": 34.665218,
    "lon": 135.5033693,
    "display_name": "〒542-0075 大阪府大阪市中央区難波千日前１１−１９",
    "source": "gmaps_places"
  },
  "鶴橋風月 梅田店 梅田 大阪 日本": {
    "lat": 34.70170239999999,
    "lon": 135.5004102,
    "display_name": "〒530-0057 大阪府大阪市北区曾根崎２丁目１６−２２ ジャスミン曽根崎ビル B1～２F",
    "source": "gmaps_places"
  },
  "トラットリア・ダ・マッシモ 梅田 大阪 日本": {
    "lat": 34.7040483,
    "lon": 135.4948827,
    "display_name": "〒530-0011 大阪府大阪市北区大深町４−２０ グランフロント南館 8階",
    "source": "gmaps_places"
  },
  "HEP FIVE 大観覧車 梅田 大阪 日本": {
    "lat": 34.7038153,
    "lon": 135.499969,
    "display_name": "〒530-0017 大阪府大阪市北区角田町５−１５ HEP FIVE 7F",
    "source": "gmaps_places"
  },
  "いづもや 梅田 大阪 日本": {
    "lat": 34.7030603,
    "lon": 135.4955727,
    "display_name": "〒530-0001 大阪府大阪市北区梅田３丁目１−３ ルクア B2F バルチカ",
    "source": "gmaps_places"
  },
  "移動（出発） 三宮 神戸 日本": {
    "lat": 34.694659,
    "lon": 135.1949544,
    "display_name": "４丁目-１番－１ 布引町 中央区 神戸市 兵庫県 651-0097",
    "source": "gmaps_places"
  },
  "北野異人館街散策 三宮 神戸 日本": {
    "lat": 34.7007283,
    "lon": 135.1907906,
    "display_name": "〒650-0002 兵庫県神戸市中央区北野町",
    "source": "gmaps_places"
  },
  "神戸牛ステーキ処 いっとくで昼食 三宮 神戸 日本": {
    "lat": 34.6930016,
    "lon": 135.1917353,
    "display_name": "〒650-1112 兵庫県神戸市中央区北長狭通１丁目９−１７ 三宮興業ビル ６階",
    "source": "gmaps_places"
  },
  "神戸ハーブ園 三宮 神戸 日本": {
    "lat": 34.70442750000001,
    "lon": 135.1938755,
    "display_name": "〒650-0002 兵庫県神戸市中央区北野町１丁目４−３",
    "source": "gmaps_places"
  },
  "有馬温泉 銀水荘 チェックイン 三宮 神戸 日本": {
    "lat": 34.802835,
    "lon": 135.2467987,
    "display_name": "〒651-1401 兵庫県神戸市北区有馬町１６５４−１",
    "source": "gmaps_places"
  },
  "移動（東京から神戸） 北野異人館街 神戸 日本": {
    "lat": 35.6764225,
    "lon": 139.650027,
    "display_name": "日本、東京都",
    "source": "gmaps_geocode"
  },
  "北野異人館街散策 北野異人館街 神戸 日本": {
    "lat": 34.7007283,
    "lon": 135.1907906,
    "display_name": "〒650-0002 兵庫県神戸市中央区北野町",
    "source": "gmaps_places"
  },
  "神戸三宮 みなと屋 北野異人館街 神戸 日本": {
    "lat": 34.7007283,
    "lon": 135.1907906,
    "display_name": "〒650-0002 兵庫県神戸市中央区北野町",
    "source": "gmaps_places"
  },
  "神戸北野美術館 北野異人館街 神戸 日本": {
    "lat": 34.7012652,
    "lon": 135.1915748,
    "display_name": "〒650-0002 兵庫県神戸市中央区北野町２丁目９−６",
    "source": "gmaps_places"
  },
  "布引ハーブ園 北野異人館街 神戸 日本": {
    "lat": 34.70442750000001,
    "lon": 135.1938755,
    "display_name": "〒650-0002 兵庫県神戸市中央区北野町１丁目４−３",
    "source": "gmaps_places"
  },
  "北野ホテル カフェレストラン 北野異人館街 神戸 日本": {
    "lat": 34.6975261,
    "lon": 135.1798769,
    "display_name": "〒650-0007 兵庫県神戸市中央区神戸港地方口一里山",
    "source": "gmaps_places"
  },
  "神戸北野ホテル 北野異人館街 神戸 日本": {
    "lat": 34.7007283,
    "lon": 135.1907906,
    "display_name": "〒650-0002 兵庫県神戸市中央区北野町",
    "source": "gmaps_places"
  },
  "北野異人館街散策 神戸 神戸 日本": {
    "lat": 34.7007283,
    "lon": 135.1907906,
    "display_name": "〒650-0002 兵庫県神戸市中央区北野町",
    "source": "gmaps_places"
  },
  "神戸牛ステーキ処 いっとくで昼食 神戸 神戸 日本": {
    "lat": 34.6931061,
    "lon": 135.1909856,
    "display_name": "〒650-0011 兵庫県神戸市中央区下山手通２丁目１−１４ アークコーストビル 2F",
    "source": "gmaps_places"
  },
  "神戸ハーブ園 神戸 神戸 日本": {
    "lat": 34.70442750000001,
    "lon": 135.1938755,
    "display_name": "〒650-0002 兵庫県神戸市中央区北野町１丁目４−３",
    "source": "gmaps_places"
  },
  "有馬温泉 銀水荘 チェックイン 神戸 神戸 日本": {
    "lat": 34.802835,
    "lon": 135.2467987,
    "display_name": "〒651-1401 兵庫県神戸市北区有馬町１６５４−１",
    "source": "gmaps_places"
  },
  "神戸三宮 みなと屋 神戸 神戸 日本": {
    "lat": 34.6922747,
    "lon": 135.193054,
    "display_name": "〒650-0021 兵庫県神戸市中央区三宮町１丁目８−１ さんプラザ地下 1階",
    "source": "gmaps_places"
  },
  "神戸北野美術館 神戸 神戸 日本": {
    "lat": 34.7012652,
    "lon": 135.1915748,
    "display_name": "〒650-0002 兵庫県神戸市中央区北野町２丁目９−６",
    "source": "gmaps_places"
  },
  "布引ハーブ園 神戸 神戸 日本": {
    "lat": 34.70442750000001,
    "lon": 135.1938755,
    "display_name": "〒650-0002 兵庫県神戸市中央区北野町１丁目４−３",
    "source": "gmaps_places"
  },
  "移動（出発） 神戸 神戸 日本": {
    "lat": 34.6797981,
    "lon": 135.1887817,
    "display_name": "〒650-0042 兵庫県神戸市中央区波止場町５−６",
    "source": "gmaps_places"
  },
  "移動（東京から神戸） 神戸 神戸 日本": {
    "lat": 34.6900806,
    "lon": 135.1956311,
    "display_name": "兵庫県神戸市",
    "source": "gmaps_places"
  },
  "神戸ハーバーランド 三宮 神戸 日本": {
    "lat": 34.6800711,
    "lon": 135.1835143,
    "display_name": "〒650-0044 兵庫県神戸市中央区東川崎町１丁目",
    "source": "gmaps_places"
  },
  "南京町（中華街）散策 三宮 神戸 日本": {
    "lat": 34.6882142,
    "lon": 135.1881104,
    "display_name": "〒650-0023 兵庫県神戸市中央区栄町通１丁目３−１８",
    "source": "gmaps_places"
  },
  "Cafe de l'ambre 三宮 神戸 日本": {
    "lat": 35.6679572,
    "lon": 139.7623402,
    "display_name": "〒104-0061 東京都中央区銀座８丁目１０−１５",
    "source": "gmaps_places"
  },
  "メリケンパーク 三宮 神戸 日本": {
    "lat": 34.6822937,
    "lon": 135.1886448,
    "display_name": "〒650-0042 兵庫県神戸市中央区波止場町２",
    "source": "gmaps_places"
  },
  "北野坂 串かつ 田中 三宮 神戸 日本": {
    "lat": 34.6925244,
    "lon": 135.1907157,
    "display_name": "〒650-0012 兵庫県神戸市中央区北長狭通２丁目１０−１２",
    "source": "gmaps_places"
  },
  "ホテルオークラ神戸 三宮 神戸 日本": {
    "lat": 34.68380670000001,
    "lon": 135.1880829,
    "display_name": "〒650-8560 兵庫県神戸市中央区波止場町２−１",
    "source": "gmaps_places"
  },
  "神戸元町商店街散策 元町 神戸 日本": {
    "lat": 34.688125,
    "lon": 135.1864146,
    "display_name": "〒650-0001 兵庫県神戸市元町通1～6丁目 の一部",
    "source": "gmaps_places"
  },
  "元町洋食屋 元町 神戸 日本": {
    "lat": 34.6879076,
    "lon": 135.1842091,
    "display_name": "〒650-0022 兵庫県神戸市中央区元町通３丁目１７−８",
    "source": "gmaps_places"
  },
  "南京町での中華料理体験 元町 神戸 日本": {
    "lat": 34.6882906,
    "lon": 135.1887772,
    "display_name": "〒650-0022 兵庫県神戸市中央区元町通１丁目２−９",
    "source": "gmaps_places"
  },
  "メリケンパーク ホバーランド 元町 神戸 日本": {
    "lat": 34.6800711,
    "lon": 135.1835143,
    "display_name": "〒650-0044 兵庫県神戸市中央区東川崎町１丁目",
    "source": "gmaps_places"
  },
  "神戸牛ステーキレストラン あん家 元町 神戸 日本": {
    "lat": 34.6887817,
    "lon": 135.1881886,
    "display_name": "〒650-0022 兵庫県神戸市中央区元町通１丁目１０−４ 元町原田ビル 2F",
    "source": "gmaps_places"
  },
  "神戸元町ホテル 元町 神戸 日本": {
    "lat": 34.68822370000001,
    "lon": 135.1894963,
    "display_name": "〒650-0023 兵庫県神戸市中央区栄町通１丁目２−３５",
    "source": "gmaps_places"
  },
  "神戸ハーバーランド 神戸 神戸 日本": {
    "lat": 34.6800711,
    "lon": 135.1835143,
    "display_name": "〒650-0044 兵庫県神戸市中央区東川崎町１丁目",
    "source": "gmaps_places"
  },
  "南京町（中華街）散策 神戸 神戸 日本": {
    "lat": 34.6882142,
    "lon": 135.1881104,
    "display_name": "〒650-0023 兵庫県神戸市中央区栄町通１丁目３−１８",
    "source": "gmaps_places"
  },
  "Cafe de l'ambre 神戸 神戸 日本": {
    "lat": 35.6679572,
    "lon": 139.7623402,
    "display_name": "〒104-0061 東京都中央区銀座８丁目１０−１５",
    "source": "gmaps_places"
  },
  "メリケンパーク 神戸 神戸 日本": {
    "lat": 34.6797981,
    "lon": 135.1887817,
    "display_name": "〒650-0042 兵庫県神戸市中央区波止場町５−６",
    "source": "gmaps_places"
  },
  "北野坂 串かつ 田中 神戸 神戸 日本": {
    "lat": 34.6925244,
    "lon": 135.1907157,
    "display_name": "〒650-0012 兵庫県神戸市中央区北長狭通２丁目１０−１２",
    "source": "gmaps_places"
  },
  "ホテルオークラ神戸 神戸 神戸 日本": {
    "lat": 34.68380670000001,
    "lon": 135.1880829,
    "display_name": "〒650-8560 兵庫県神戸市中央区波止場町２−１",
    "source": "gmaps_places"
  },
  "神戸元町商店街散策 神戸 神戸 日本": {
    "lat": 34.688125,
    "lon": 135.1864146,
    "display_name": "〒650-0001 兵庫県神戸市元町通1～6丁目 の一部",
    "source": "gmaps_places"
  },
  "元町洋食屋 神戸 神戸 日本": {
    "lat": 34.6884383,
    "lon": 135.1859433,
    "display_name": "〒650-0022 兵庫県神戸市中央区元町通３丁目１２−３ 日国ビル",
    "source": "gmaps_places"
  },
  "南京町での中華料理体験 神戸 神戸 日本": {
    "lat": 34.6881293,
    "lon": 135.188452,
    "display_name": "〒650-0022 兵庫県神戸市中央区元町通１丁目３−３",
    "source": "gmaps_places"
  },
  "メリケンパーク ホバーランド 神戸 神戸 日本": {
    "lat": 34.6797981,
    "lon": 135.1887817,
    "display_name": "〒650-0042 兵庫県神戸市中央区波止場町５−６",
    "source": "gmaps_places"
  },
  "神戸牛ステーキレストラン あん家 神戸 神戸 日本": {
    "lat": 34.6930016,
    "lon": 135.1917353,
    "display_name": "〒650-1112 兵庫県神戸市中央区北長狭通１丁目９−１７ 三宮興業ビル ６階",
    "source": "gmaps_places"
  },
  "神戸 日本": {
    "lat": 34.6900806,
    "lon": 135.1956311,
    "display_name": "兵庫県神戸市",
    "source": "gmaps_places"
  },
  "移動（出発） 元町 神戸 日本": {
    "lat": 34.6895662,
    "lon": 135.1873482,
    "display_name": "〒650-0014 兵庫県神戸市中央区元町高架通",
    "source": "gmaps_places"
  },
  "元町商店街の散策 元町 神戸 日本": {
    "lat": 34.688125,
    "lon": 135.1864146,
    "display_name": "〒650-0001 兵庫県神戸市元町通1～6丁目 の一部",
    "source": "gmaps_places"
  },
  "元町中華街でランチ 元町 神戸 日本": {
    "lat": 34.6882443,
    "lon": 135.1882106,
    "display_name": "〒650-0022 兵庫県神戸市中央区元町通１丁目３−７",
    "source": "gmaps_places"
  },
  "神戸ハーバーランドの観覧車 元町 神戸 日本": {
    "lat": 34.6786973,
    "lon": 135.1852421,
    "display_name": "〒650-0044 兵庫県神戸市中央区東川崎町１丁目６−１",
    "source": "gmaps_places"
  },
  "神戸カレー倶楽部でディナー 元町 神戸 日本": {
    "lat": 34.6837557,
    "lon": 135.1794767,
    "display_name": "〒650-0022 兵庫県神戸市中央区元町通６丁目８−１２",
    "source": "gmaps_places"
  },
  "ホテルオークラ神戸で宿泊 元町 神戸 日本": {
    "lat": 34.68380670000001,
    "lon": 135.1880829,
    "display_name": "〒650-8560 兵庫県神戸市中央区波止場町２−１",
    "source": "gmaps_places"
  },
  "スシロー 三宮駅前店 三宮 神戸 日本": {
    "lat": 34.69264390000001,
    "lon": 135.1912337,
    "display_name": "〒650-0012 兵庫県神戸市中央区北長狭通２丁目１２−１３ キングズコーストビル 3階",
    "source": "gmaps_places"
  },
  "神戸牛ステーキ 銀座 かねざき 三宮 神戸 日本": {
    "lat": 34.6930016,
    "lon": 135.1917353,
    "display_name": "〒650-1112 兵庫県神戸市中央区北長狭通１丁目９−１７ 三宮興業ビル ６階",
    "source": "gmaps_places"
  },
  "元町商店街の散策 神戸 神戸 日本": {
    "lat": 34.688125,
    "lon": 135.1864146,
    "display_name": "〒650-0001 兵庫県神戸市元町通1～6丁目 の一部",
    "source": "gmaps_places"
  },
  "元町中華街でランチ 神戸 神戸 日本": {
    "lat": 34.6882142,
    "lon": 135.1881104,
    "display_name": "〒650-0023 兵庫県神戸市中央区栄町通１丁目３−１８",
    "source": "gmaps_places"
  },
  "神戸ハーバーランドの観覧車 神戸 神戸 日本": {
    "lat": 34.6786973,
    "lon": 135.1852421,
    "display_name": "〒650-0044 兵庫県神戸市中央区東川崎町１丁目６−１",
    "source": "gmaps_places"
  },
  "神戸カレー倶楽部でディナー 神戸 神戸 日本": {
    "lat": 34.6942745,
    "lon": 135.1899418,
    "display_name": "〒650-0011 兵庫県神戸市中央区下山手通２丁目１７−１０ ライオンビル三宮館 2F 三ノ宮 神戸牛ステーキ 神戸牛専門 ランチ ディナー 鉄板焼き 接待 高級 コース",
    "source": "gmaps_places"
  },
  "ホテルオークラ神戸で宿泊 神戸 神戸 日本": {
    "lat": 34.68380670000001,
    "lon": 135.1880829,
    "display_name": "〒650-8560 兵庫県神戸市中央区波止場町２−１",
    "source": "gmaps_places"
  },
  "スシロー 三宮駅前店 神戸 神戸 日本": {
    "lat": 34.69264390000001,
    "lon": 135.1912337,
    "display_name": "〒650-0012 兵庫県神戸市中央区北長狭通２丁目１２−１３ キングズコーストビル 3階",
    "source": "gmaps_places"
  },
  "神戸牛ステーキ 銀座 かねざき 神戸 神戸 日本": {
    "lat": 35.670163,
    "lon": 139.7605225,
    "display_name": "〒104-0061 東京都中央区銀座７丁目３−８ HULIC&NEW GINZA 7 7F (旧 プレイス） 7F",
    "source": "gmaps_places"
  },
  "移動（出発） 北野異人館街 神戸 日本": {
    "lat": 34.7007283,
    "lon": 135.1907906,
    "display_name": "〒650-0002 兵庫県神戸市中央区北野町",
    "source": "gmaps_places"
  },
  "ル・クールでランチ 北野異人館街 神戸 日本": {
    "lat": 34.6826254,
    "lon": 135.1840957,
    "display_name": "〒650-0042 兵庫県神戸市中央区波止場町７−２ ホテルラ・スイート神戸ハーバーランド 2階 ホテル ラ・スイート神戸ハーバーランド2階",
    "source": "gmaps_places"
  },
  "風見鶏の館訪問 北野異人館街 神戸 日本": {
    "lat": 34.7013881,
    "lon": 135.1895175,
    "display_name": "〒650-0002 兵庫県神戸市中央区北野町３丁目１３−３",
    "source": "gmaps_places"
  },
  "神戸メリケンパークオリエンタルホテル チェックイン 北野異人館街 神戸 日本": {
    "lat": 34.6797981,
    "lon": 135.1887817,
    "display_name": "〒650-0042 兵庫県神戸市中央区波止場町５−６",
    "source": "gmaps_places"
  },
  "有馬温泉の足湯 有馬温泉 神戸 日本": {
    "lat": 34.7968064,
    "lon": 135.2478285,
    "display_name": "〒651-1401 兵庫県神戸市北区有馬町８３３",
    "source": "gmaps_places"
  },
  "有馬グランドホテル みゆきの湯で和食ランチ 有馬温泉 神戸 日本": {
    "lat": 34.7975845,
    "lon": 135.2445498,
    "display_name": "〒651-1401 兵庫県神戸市北区有馬町１３０４−１",
    "source": "gmaps_places"
  },
  "有馬温泉街の散策 有馬温泉 神戸 日本": {
    "lat": 34.7968064,
    "lon": 135.2478285,
    "display_name": "〒651-1401 兵庫県神戸市北区有馬町８３３",
    "source": "gmaps_places"
  },
  "炭火焼肉 あかしやでディナー 有馬温泉 神戸 日本": {
    "lat": 34.7991045,
    "lon": 135.2462047,
    "display_name": "〒651-1401 兵庫県神戸市北区有馬町１２９８−９",
    "source": "gmaps_places"
  },
  "有馬温泉 兵衛向陽閣 有馬温泉 神戸 日本": {
    "lat": 34.7986433,
    "lon": 135.2489906,
    "display_name": "〒651-1401 兵庫県神戸市北区有馬町１９０４",
    "source": "gmaps_places"
  },
  "ル・クールでランチ 神戸 神戸 日本": {
    "lat": 34.6826254,
    "lon": 135.1840957,
    "display_name": "〒650-0042 兵庫県神戸市中央区波止場町７−２ ホテルラ・スイート神戸ハーバーランド 2階 ホテル ラ・スイート神戸ハーバーランド2階",
    "source": "gmaps_places"
  },
  "風見鶏の館訪問 神戸 神戸 日本": {
    "lat": 34.7013881,
    "lon": 135.1895175,
    "display_name": "〒650-0002 兵庫県神戸市中央区北野町３丁目１３−３",
    "source": "gmaps_places"
  },
  "神戸メリケンパークオリエンタルホテル チェックイン 神戸 神戸 日本": {
    "lat": 34.6797981,
    "lon": 135.1887817,
    "display_name": "〒650-0042 兵庫県神戸市中央区波止場町５−６",
    "source": "gmaps_places"
  },
  "有馬温泉の足湯 神戸 神戸 日本": {
    "lat": 34.7968064,
    "lon": 135.2478285,
    "display_name": "〒651-1401 兵庫県神戸市北区有馬町８３３",
    "source": "gmaps_places"
  },
  "有馬温泉街の散策 神戸 神戸 日本": {
    "lat": 34.7968064,
    "lon": 135.2478285,
    "display_name": "〒651-1401 兵庫県神戸市北区有馬町８３３",
    "source": "gmaps_places"
  },
  "炭火焼肉 あかしやでディナー 神戸 神戸 日本": {
    "lat": 34.694562,
    "lon": 135.192644,
    "display_name": "〒650-0012 兵庫県神戸市中央区北長狭通１丁目２０−９ 館ビル 2F",
    "source": "gmaps_places"
  },
  "元町商店街散策 元町 神戸 日本": {
    "lat": 34.688125,
    "lon": 135.1864146,
    "display_name": "〒650-0001 兵庫県神戸市元町通1～6丁目 の一部",
    "source": "gmaps_places"
  },
  "元町珈琲 元町 神戸 日本": {
    "lat": 34.6917545,
    "lon": 135.1879388,
    "display_name": "〒650-0012 兵庫県神戸市中央区北長狭通３丁目９−７",
    "source": "gmaps_places"
  },
  "神戸ハーバーランドでのクルージング 元町 神戸 日本": {
    "lat": 34.6796943,
    "lon": 135.1848954,
    "display_name": "〒650-0044 兵庫県神戸市中央区東川崎町１丁目６−１ 神戸ハーバーランドumie モザイク 1F",
    "source": "gmaps_places"
  },
  "神戸ポートタワー観光 元町 神戸 日本": {
    "lat": 34.68263,
    "lon": 135.1866995,
    "display_name": "〒650-0042 兵庫県神戸市中央区波止場町５−５",
    "source": "gmaps_places"
  },
  "神戸牛ステーキアンドハンバーグ たいせい 元町 神戸 日本": {
    "lat": 34.6883645,
    "lon": 135.1892543,
    "display_name": "〒650-0022 兵庫県神戸市中央区元町通１丁目１−３",
    "source": "gmaps_places"
  },
  "神戸ハーバーランドスペースシアター ハーバーランド 神戸 日本": {
    "lat": 34.679091,
    "lon": 135.1802686,
    "display_name": "〒650-0044 兵庫県神戸市中央区東川崎町１丁目３−３",
    "source": "gmaps_places"
  },
  "レストラン シーフード お魚料理 ハーバーランド 神戸 日本": {
    "lat": 34.6800609,
    "lon": 135.1844962,
    "display_name": "〒650-0044 兵庫県神戸市中央区東川崎町１丁目６−１ 2F 神戸ハーバーランドumieモザイク",
    "source": "gmaps_places"
  },
  "神戸ポートタワー ハーバーランド 神戸 日本": {
    "lat": 34.68263,
    "lon": 135.1866995,
    "display_name": "〒650-0042 兵庫県神戸市中央区波止場町５−５",
    "source": "gmaps_places"
  },
  "カフェ&レストラン 自然派ダイニング ハーバーランド 神戸 日本": {
    "lat": 34.6786584,
    "lon": 135.1802444,
    "display_name": "〒650-0044 兵庫県神戸市中央区東川崎町１丁目３−５ 神戸ハーバーランドホテルクラウンパレス神戸内 1F",
    "source": "gmaps_places"
  },
  "南京町（中華街）散策 ハーバーランド 神戸 日本": {
    "lat": 34.6882142,
    "lon": 135.1881104,
    "display_name": "〒650-0023 兵庫県神戸市中央区栄町通１丁目３−１８",
    "source": "gmaps_places"
  },
  "元町商店街散策 神戸 神戸 日本": {
    "lat": 34.688125,
    "lon": 135.1864146,
    "display_name": "〒650-0001 兵庫県神戸市元町通1～6丁目 の一部",
    "source": "gmaps_places"
  },
  "元町珈琲 神戸 神戸 日本": {
    "lat": 34.6917545,
    "lon": 135.1879388,
    "display_name": "〒650-0012 兵庫県神戸市中央区北長狭通３丁目９−７",
    "source": "gmaps_places"
  },
  "神戸ハーバーランドでのクルージング 神戸 神戸 日本": {
    "lat": 34.6796943,
    "lon": 135.1848954,
    "display_name": "〒650-0044 兵庫県神戸市中央区東川崎町１丁目６−１ 神戸ハーバーランドumie モザイク 1F",
    "source": "gmaps_places"
  },
  "神戸ポートタワー観光 神戸 神戸 日本": {
    "lat": 34.68263,
    "lon": 135.1866995,
    "display_name": "〒650-0042 兵庫県神戸市中央区波止場町５−５",
    "source": "gmaps_places"
  },
  "神戸牛ステーキアンドハンバーグ たいせい 神戸 神戸 日本": {
    "lat": 34.6941624,
    "lon": 135.1925201,
    "display_name": "〒650-0012 兵庫県神戸市中央区北長狭通１丁目２１ ２TAKAIビル 3F",
    "source": "gmaps_places"
  },
  "神戸元町ホテル 神戸 神戸 日本": {
    "lat": 34.6877257,
    "lon": 135.1856985,
    "display_name": "〒650-0022 兵庫県神戸市中央区元町通３丁目４−７ 神戸プラザホテルウエスト 1階",
    "source": "gmaps_places"
  },
  "神戸ハーバーランドスペースシアター 神戸 神戸 日本": {
    "lat": 34.679091,
    "lon": 135.1802686,
    "display_name": "〒650-0044 兵庫県神戸市中央区東川崎町１丁目３−３",
    "source": "gmaps_places"
  },
  "レストラン シーフード お魚料理 神戸 神戸 日本": {
    "lat": 34.6932954,
    "lon": 135.1939852,
    "display_name": "〒650-0021 兵庫県神戸市中央区三宮町１丁目１０−１ 神戸交通センタービル 9階",
    "source": "gmaps_places"
  },
  "神戸ポートタワー 神戸 神戸 日本": {
    "lat": 34.68263,
    "lon": 135.1866995,
    "display_name": "〒650-0042 兵庫県神戸市中央区波止場町５−５",
    "source": "gmaps_places"
  },
  "カフェ&レストラン 自然派ダイニング 神戸 神戸 日本": {
    "lat": 34.6951221,
    "lon": 135.1855488,
    "display_name": "〒650-0004 兵庫県神戸市中央区中山手通４丁目１５−１０",
    "source": "gmaps_places"
  },
  "移動（出発） 祇園 京都 日本": {
    "lat": 35.0037816,
    "lon": 135.777245,
    "display_name": "日本、京都府京都市東山区 祇園",
    "source": "gmaps_geocode"
  },
  "八坂神社訪問 祇園 京都 日本": {
    "lat": 35.0036559,
    "lon": 135.7785534,
    "display_name": "〒605-0073 京都府京都市東山区祇園町北側６２５",
    "source": "gmaps_places"
  },
  "祇園すゞらんでランチ 祇園 京都 日本": {
    "lat": 35.0030759,
    "lon": 135.7753259,
    "display_name": "〒605-0074 京都府京都市東山区祇園町南側５７０−１２５",
    "source": "gmaps_places"
  },
  "祇園観光案内所での無料ガイドツアー 祇園 京都 日本": {
    "lat": 35.0020743,
    "lon": 135.7728388,
    "display_name": "パレ祇園 557-9 557-4 Komatsu Cho, Pare Gion 101, 四丁目-５５７−４ 小松町 東山区 京都市 京都府 605-0811",
    "source": "gmaps_places"
  },
  "生麺焼き鶏 京都祇園で夕食 祇園 京都 日本": {
    "lat": 35.00438320000001,
    "lon": 135.7754448,
    "display_name": "〒605-0073 京都府京都市東山区祇園町北側３４４−３ アミカビル 1-1F",
    "source": "gmaps_places"
  },
  "弥生旅館にチェックイン 祇園 京都 日本": {
    "lat": 35.0067599,
    "lon": 135.7743849,
    "display_name": "〒605-0089 京都府京都市東山区元町３９１−２",
    "source": "gmaps_places"
  },
  "嵐山温泉 あらしやま 嵐山 京都 日本": {
    "lat": 35.0106897,
    "lon": 135.680376,
    "display_name": "〒616-0003 京都府京都市西京区嵐山西一川町５−４",
    "source": "gmaps_places"
  },
  "嵐山竹林の道散策 嵐山 京都 日本": {
    "lat": 35.0168187,
    "lon": 135.6713013,
    "display_name": "〒616-8394 京都府京都市右京区嵯峨小倉山田淵山町",
    "source": "gmaps_places"
  },
  "嵐山よしむら 嵐山 京都 日本": {
    "lat": 35.0136055,
    "lon": 135.6772744,
    "display_name": "〒616-8385 京都府京都市右京区嵯峨天龍寺芒ノ馬場町３",
    "source": "gmaps_places"
  },
  "天龍寺境内散策 嵐山 京都 日本": {
    "lat": 35.0158379,
    "lon": 135.6737654,
    "display_name": "〒616-8385 京都府京都市右京区嵯峨天龍寺芒ノ馬場町６８",
    "source": "gmaps_places"
  },
  "トロッコ列車（保津川下り） 嵐山 京都 日本": {
    "lat": 35.017202,
    "lon": 135.5868593,
    "display_name": "〒621-0005 京都府亀岡市保津町下中島２",
    "source": "gmaps_places"
  },
  "ぎをんやすべえ 嵐山本店 嵐山 京都 日本": {
    "lat": 35.0135189,
    "lon": 135.6746357,
    "display_name": "〒616-8385 京都府京都市右京区嵯峨天龍寺芒ノ馬場町５８",
    "source": "gmaps_places"
  },
  "八坂神社訪問 京都 京都 日本": {
    "lat": 35.0036559,
    "lon": 135.7785534,
    "display_name": "〒605-0073 京都府京都市東山区祇園町北側６２５",
    "source": "gmaps_places"
  },
  "祇園すゞらんでランチ 京都 京都 日本": {
    "lat": 35.0041898,
    "lon": 135.7728799,
    "display_name": "〒605-0077 京都府京都市東山区廿一軒町２３３",
    "source": "gmaps_places"
  },
  "祇園観光案内所での無料ガイドツアー 京都 京都 日本": {
    "lat": 35.0020743,
    "lon": 135.7728388,
    "display_name": "パレ祇園 557-9 557-4 Komatsu Cho, Pare Gion 101, 四丁目-５５７−４ 小松町 東山区 京都市 京都府 605-0811",
    "source": "gmaps_places"
  },
  "祇園の舞妓体験 京都 京都 日本": {
    "lat": 35.0016904,
    "lon": 135.7788823,
    "display_name": "〒605-0825 京都府京都市東山区下河原町４９９−８",
    "source": "gmaps_places"
  },
  "生麺焼き鶏 京都祇園で夕食 京都 京都 日本": {
    "lat": 35.00438320000001,
    "lon": 135.7754448,
    "display_name": "〒605-0073 京都府京都市東山区祇園町北側３４４−３ アミカビル 1-1F",
    "source": "gmaps_places"
  },
  "弥生旅館にチェックイン 京都 京都 日本": {
    "lat": 35.0035245,
    "lon": 135.7510276,
    "display_name": "〒600-8499 京都府京都市下京区四条通堀川西入唐津屋町５２１",
    "source": "gmaps_places"
  },
  "嵐山竹林の道散策 京都 京都 日本": {
    "lat": 35.0168187,
    "lon": 135.6713013,
    "display_name": "〒616-8394 京都府京都市右京区嵯峨小倉山田淵山町",
    "source": "gmaps_places"
  },
  "嵐山よしむら 京都 京都 日本": {
    "lat": 35.0136055,
    "lon": 135.6772744,
    "display_name": "〒616-8385 京都府京都市右京区嵯峨天龍寺芒ノ馬場町３",
    "source": "gmaps_places"
  },
  "天龍寺境内散策 京都 京都 日本": {
    "lat": 35.0158379,
    "lon": 135.6737654,
    "display_name": "〒616-8385 京都府京都市右京区嵯峨天龍寺芒ノ馬場町６８",
    "source": "gmaps_places"
  },
  "トロッコ列車（保津川下り） 京都 京都 日本": {
    "lat": 35.017202,
    "lon": 135.5868593,
    "display_name": "〒621-0005 京都府亀岡市保津町下中島２",
    "source": "gmaps_places"
  },
  "ぎをんやすべえ 嵐山本店 京都 京都 日本": {
    "lat": 35.0066304,
    "lon": 135.7711277,
    "display_name": "〒604-8012 京都府京都市中京区梅之木町１４２",
    "source": "gmaps_places"
  },
  "祇園 さ貴 で昼食 祇園 京都 日本": {
    "lat": 34.9989009,
    "lon": 135.774996,
    "display_name": "〒605-0811 京都府京都市東山区小松町５６６−２７",
    "source": "gmaps_places"
  },
  "八坂神社 見学 祇園 京都 日本": {
    "lat": 35.0036559,
    "lon": 135.7785534,
    "display_name": "〒605-0073 京都府京都市東山区祇園町北側６２５",
    "source": "gmaps_places"
  },
  "建仁寺 見学 祇園 京都 日本": {
    "lat": 35.0000363,
    "lon": 135.7735632,
    "display_name": "〒605-0811 京都府京都市東山区大和大路通四条下る小松町５８４番地",
    "source": "gmaps_places"
  },
  "祇園 魚三 で夕食 祇園 京都 日本": {
    "lat": 35.0053759,
    "lon": 135.77531,
    "display_name": "〒605-0084 京都府京都市東山区清本町３８０−４ ギオン不動ビル 1F",
    "source": "gmaps_places"
  },
  "祇園 亀八 で宿泊 祇園 京都 日本": {
    "lat": 35.0072749,
    "lon": 135.7707854,
    "display_name": "〒604-8017 京都府京都市中京区材木町１８５−３",
    "source": "gmaps_places"
  },
  "金閣寺 金閣寺 京都 日本": {
    "lat": 35.03937,
    "lon": 135.7292431,
    "display_name": "〒603-8361 京都府京都市北区金閣寺町１",
    "source": "gmaps_places"
  },
  "金閣寺天ぷら やましん 金閣寺 京都 日本": {
    "lat": 35.0384886,
    "lon": 135.7316497,
    "display_name": "〒603-8362 京都府京都市北区衣笠馬場町３０−６",
    "source": "gmaps_places"
  },
  "祇園散策 金閣寺 京都 日本": {
    "lat": 35.03937,
    "lon": 135.7292431,
    "display_name": "〒603-8361 京都府京都市北区金閣寺町１",
    "source": "gmaps_places"
  },
  "八坂神社 金閣寺 京都 日本": {
    "lat": 35.03937,
    "lon": 135.7292431,
    "display_name": "〒603-8361 京都府京都市北区金閣寺町１",
    "source": "gmaps_places"
  },
  "カフェ・ド・ランブル 金閣寺 京都 日本": {
    "lat": 35.6679572,
    "lon": 139.7623402,
    "display_name": "〒104-0061 東京都中央区銀座８丁目１０−１５",
    "source": "gmaps_places"
  },
  "八坂圭 祇園 京都 日本": {
    "lat": 35.0036559,
    "lon": 135.7785534,
    "display_name": "〒605-0073 京都府京都市東山区祇園町北側６２５",
    "source": "gmaps_places"
  },
  "鴨川の散歩 祇園 京都 日本": {
    "lat": 35.0086404,
    "lon": 135.7714806,
    "display_name": "〒604-8002 京都府京都市中京区木屋町通三条下る石屋町１２６ オリエンタル会館",
    "source": "gmaps_places"
  },
  "ぎをん ゆうぎ 祇園 京都 日本": {
    "lat": 35.0047793,
    "lon": 135.7768102,
    "display_name": "〒605-0073 京都府京都市東山区祇園町北側３４７−１８",
    "source": "gmaps_places"
  },
  "祇園散策 京都 京都 日本": {
    "lat": 35.0054778,
    "lon": 135.7736473,
    "display_name": "〒605-0087 京都府京都市東山区元吉町白川筋",
    "source": "gmaps_places"
  },
  "祇園 さ貴 で昼食 京都 京都 日本": {
    "lat": 34.9989009,
    "lon": 135.774996,
    "display_name": "〒605-0811 京都府京都市東山区小松町５６６−２７",
    "source": "gmaps_places"
  },
  "八坂神社 見学 京都 京都 日本": {
    "lat": 35.0036559,
    "lon": 135.7785534,
    "display_name": "〒605-0073 京都府京都市東山区祇園町北側６２５",
    "source": "gmaps_places"
  },
  "建仁寺 見学 京都 京都 日本": {
    "lat": 35.0000363,
    "lon": 135.7735632,
    "display_name": "〒605-0811 京都府京都市東山区大和大路通四条下る小松町５８４番地",
    "source": "gmaps_places"
  },
  "祇園 魚三 で夕食 京都 京都 日本": {
    "lat": 35.0053759,
    "lon": 135.77531,
    "display_name": "〒605-0084 京都府京都市東山区清本町３８０−４ ギオン不動ビル 1F",
    "source": "gmaps_places"
  },
  "祇園 亀八 で宿泊 京都 京都 日本": {
    "lat": 35.0072749,
    "lon": 135.7707854,
    "display_name": "〒604-8017 京都府京都市中京区材木町１８５−３",
    "source": "gmaps_places"
  },
  "金閣寺 京都 京都 日本": {
    "lat": 35.03937,
    "lon": 135.7292431,
    "display_name": "〒603-8361 京都府京都市北区金閣寺町１",
    "source": "gmaps_places"
  },
  "金閣寺天ぷら やましん 京都 京都 日本": {
    "lat": 35.0306048,
    "lon": 135.7421216,
    "display_name": "〒602-8474 京都府京都市上京区上善寺町８９",
    "source": "gmaps_places"
  },
  "八坂神社 京都 京都 日本": {
    "lat": 35.0036559,
    "lon": 135.7785534,
    "display_name": "〒605-0073 京都府京都市東山区祇園町北側６２５",
    "source": "gmaps_places"
  },
  "カフェ・ド・ランブル 京都 京都 日本": {
    "lat": 35.6679572,
    "lon": 139.7623402,
    "display_name": "〒104-0061 東京都中央区銀座８丁目１０−１５",
    "source": "gmaps_places"
  },
  "八坂圭 京都 京都 日本": {
    "lat": 35.0036559,
    "lon": 135.7785534,
    "display_name": "〒605-0073 京都府京都市東山区祇園町北側６２５",
    "source": "gmaps_places"
  },
  "鴨川の散歩 京都 京都 日本": {
    "lat": 35.0408244,
    "lon": 135.7641119,
    "display_name": "〒603-8133 京都府京都市北区出雲路松ノ下町",
    "source": "gmaps_places"
  },
  "ぎをん ゆうぎ 京都 京都 日本": {
    "lat": 35.0047793,
    "lon": 135.7768102,
    "display_name": "〒605-0073 京都府京都市東山区祇園町北側３４７−１８",
    "source": "gmaps_places"
  },
  "神戸ハーバーランド 元町 神戸 日本": {
    "lat": 34.6800711,
    "lon": 135.1835143,
    "display_name": "〒650-0044 兵庫県神戸市中央区東川崎町１丁目",
    "source": "gmaps_places"
  },
  "寿司大でランチ 元町 神戸 日本": {
    "lat": 34.6925852,
    "lon": 135.1903222,
    "display_name": "〒650-0012 兵庫県神戸市中央区北長狭通２丁目９−６ 好大 2F ビル",
    "source": "gmaps_places"
  },
  "南京町（中華街）散策 元町 神戸 日本": {
    "lat": 34.6882142,
    "lon": 135.1881104,
    "display_name": "〒650-0023 兵庫県神戸市中央区栄町通１丁目３−１８",
    "source": "gmaps_places"
  },
  "メリケンパーク 元町 神戸 日本": {
    "lat": 34.6822937,
    "lon": 135.1886448,
    "display_name": "〒650-0042 兵庫県神戸市中央区波止場町２",
    "source": "gmaps_places"
  },
  "神戸牛ステーキランドでディナー 元町 神戸 日本": {
    "lat": 34.6930016,
    "lon": 135.1917353,
    "display_name": "〒650-1112 兵庫県神戸市中央区北長狭通１丁目９−１７ 三宮興業ビル ６階",
    "source": "gmaps_places"
  },
  "神戸メリケンパークオリエンタルホテル 元町 神戸 日本": {
    "lat": 34.6797981,
    "lon": 135.1887817,
    "display_name": "〒650-0042 兵庫県神戸市中央区波止場町５−６",
    "source": "gmaps_places"
  },
  "1丁目のホルモンでランチ 三宮 神戸 日本": {
    "lat": 34.6936136,
    "lon": 135.1921745,
    "display_name": "〒650-0012 兵庫県神戸市中央区北長狭通１丁目５−８ コースト３５ 1F 南側店舗",
    "source": "gmaps_places"
  },
  "南京町 三宮 神戸 日本": {
    "lat": 34.6882142,
    "lon": 135.1881104,
    "display_name": "〒650-0023 兵庫県神戸市中央区栄町通１丁目３−１８",
    "source": "gmaps_places"
  },
  "トラットリア・アズーリでディナー 三宮 神戸 日本": {
    "lat": 34.6958995,
    "lon": 135.1867914,
    "display_name": "〒650-0003 兵庫県神戸市中央区山本通３丁目７−３ ユートピアトーア １Ｆ",
    "source": "gmaps_places"
  },
  "ホテルオークラ神戸に宿泊 三宮 神戸 日本": {
    "lat": 34.68380670000001,
    "lon": 135.1880829,
    "display_name": "〒650-8560 兵庫県神戸市中央区波止場町２−１",
    "source": "gmaps_places"
  },
  "寿司大でランチ 神戸 神戸 日本": {
    "lat": 34.6925852,
    "lon": 135.1903222,
    "display_name": "〒650-0012 兵庫県神戸市中央区北長狭通２丁目９−６ 好大 2F ビル",
    "source": "gmaps_places"
  },
  "神戸牛ステーキランドでディナー 神戸 神戸 日本": {
    "lat": 34.6930016,
    "lon": 135.1917353,
    "display_name": "〒650-1112 兵庫県神戸市中央区北長狭通１丁目９−１７ 三宮興業ビル ６階",
    "source": "gmaps_places"
  },
  "神戸メリケンパークオリエンタルホテル 神戸 神戸 日本": {
    "lat": 34.6797981,
    "lon": 135.1887817,
    "display_name": "〒650-0042 兵庫県神戸市中央区波止場町５−６",
    "source": "gmaps_places"
  },
  "1丁目のホルモンでランチ 神戸 神戸 日本": {
    "lat": 34.6936136,
    "lon": 135.1921745,
    "display_name": "〒650-0012 兵庫県神戸市中央区北長狭通１丁目５−８ コースト３５ 1F 南側店舗",
    "source": "gmaps_places"
  },
  "南京町 神戸 神戸 日本": {
    "lat": 34.6882142,
    "lon": 135.1881104,
    "display_name": "〒650-0023 兵庫県神戸市中央区栄町通１丁目３−１８",
    "source": "gmaps_places"
  },
  "トラットリア・アズーリでディナー 神戸 神戸 日本": {
    "lat": 34.6958995,
    "lon": 135.1867914,
    "display_name": "〒650-0003 兵庫県神戸市中央区山本通３丁目７−３ ユートピアトーア １Ｆ",
    "source": "gmaps_places"
  },
  "元町中華街でランチ 三宮 神戸 日本": {
    "lat": 34.6912475,
    "lon": 135.1881222,
    "display_name": "〒650-0012 兵庫県神戸市中央区北長狭通３丁目６−５",
    "source": "gmaps_places"
  },
  "神戸玄関口ストリートアートツアー 三宮 神戸 日本": {
    "lat": 34.6919496,
    "lon": 135.1938962,
    "display_name": "〒650-0021 兵庫県神戸市中央区三宮町１丁目８−１−１５４",
    "source": "gmaps_places"
  },
  "神戸牛とワインの店でディナー 三宮 神戸 日本": {
    "lat": 34.6928116,
    "lon": 135.1914812,
    "display_name": "〒650-0012 兵庫県神戸市中央区北長狭通１丁目９−９ 第１岸ビル 3F",
    "source": "gmaps_places"
  },
  "神戸ポートピアホテル チェックイン 三宮 神戸 日本": {
    "lat": 34.6652515,
    "lon": 135.213701,
    "display_name": "〒650-0046 兵庫県神戸市中央区港島中町６丁目１０−１",
    "source": "gmaps_places"
  },
  "神戸市立博物館訪問 元町 神戸 日本": {
    "lat": 34.6872567,
    "lon": 135.1931834,
    "display_name": "〒650-0034 兵庫県神戸市中央区京町２４",
    "source": "gmaps_places"
  },
  "レストランアオドリーでランチ 元町 神戸 日本": {
    "lat": 34.6863886,
    "lon": 135.1837703,
    "display_name": "〒650-0022 兵庫県神戸市中央区元町通４丁目２−２５ 浜口マンション",
    "source": "gmaps_places"
  },
  "ホテルオークラ神戸で休憩 元町 神戸 日本": {
    "lat": 34.68380670000001,
    "lon": 135.1880829,
    "display_name": "〒650-8560 兵庫県神戸市中央区波止場町２−１",
    "source": "gmaps_places"
  },
  "神戸牛専門店 いとうでディナー 元町 神戸 日本": {
    "lat": 34.688432,
    "lon": 135.1880633,
    "display_name": "〒650-0022 兵庫県神戸市中央区元町通１丁目６−６",
    "source": "gmaps_places"
  },
  "神戸玄関口ストリートアートツアー 神戸 神戸 日本": {
    "lat": 34.68263,
    "lon": 135.1866995,
    "display_name": "〒650-0042 兵庫県神戸市中央区波止場町５−５",
    "source": "gmaps_places"
  },
  "神戸牛とワインの店でディナー 神戸 神戸 日本": {
    "lat": 34.6942745,
    "lon": 135.1899418,
    "display_name": "〒650-0011 兵庫県神戸市中央区下山手通２丁目１７−１０ ライオンビル三宮館 2F 三ノ宮 神戸牛ステーキ 神戸牛専門 ランチ ディナー 鉄板焼き 接待 高級 コース",
    "source": "gmaps_places"
  },
  "神戸市立博物館訪問 神戸 神戸 日本": {
    "lat": 34.6872567,
    "lon": 135.1931834,
    "display_name": "〒650-0034 兵庫県神戸市中央区京町２４",
    "source": "gmaps_places"
  },
  "レストランアオドリーでランチ 神戸 神戸 日本": {
    "lat": 34.6799905,
    "lon": 135.1750843,
    "display_name": "〒650-0015 兵庫県神戸市中央区多聞通４丁目１−６ ＡＴＥＬＩＥＲ ＨＯＵＳＥ ＴＡＭＯＮ",
    "source": "gmaps_places"
  },
  "神戸牛専門店 いとうでディナー 神戸 神戸 日本": {
    "lat": 34.6941624,
    "lon": 135.1925201,
    "display_name": "〒650-0012 兵庫県神戸市中央区北長狭通１丁目２１ ２TAKAIビル 3F",
    "source": "gmaps_places"
  },
  "移動（出発） 梅田 大阪 日本": {
    "lat": 34.7005588,
    "lon": 135.4957339,
    "display_name": "〒530-0001 大阪府大阪市北区梅田",
    "source": "gmaps_places"
  },
  "梅田の寿司屋でランチ 梅田 大阪 日本": {
    "lat": 34.6989156,
    "lon": 135.499552,
    "display_name": "〒530-0001 大阪府大阪市北区梅田１丁目１−３ 大阪駅前第3ビル B2F 43-1番",
    "source": "gmaps_places"
  },
  "梅田のショッピング 梅田 大阪 日本": {
    "lat": 34.7028186,
    "lon": 135.4985323,
    "display_name": "〒530-8350 大阪府大阪市北区角田町８−７",
    "source": "gmaps_places"
  },
  "梅田の串揚げ屋で夕食 梅田 大阪 日本": {
    "lat": 34.7024503,
    "lon": 135.500839,
    "display_name": "〒530-0018 大阪府大阪市北区小松原町１−１６ モコビル 4F",
    "source": "gmaps_places"
  },
  "ホテルグランヴィア大阪 チェックイン 梅田 大阪 日本": {
    "lat": 34.701726,
    "lon": 135.4963754,
    "display_name": "〒530-0001 大阪府大阪市北区梅田３丁目１−１",
    "source": "gmaps_places"
  },
  "なんばグランド花月 難波 大阪 日本": {
    "lat": 34.6649869,
    "lon": 135.5036556,
    "display_name": "〒542-0075 大阪府大阪市中央区難波千日前１１−６",
    "source": "gmaps_places"
  },
  "すしざんまい 難波店 難波 大阪 日本": {
    "lat": 34.6683774,
    "lon": 135.5014641,
    "display_name": "〒542-0071 大阪府大阪市中央区道頓堀１丁目８−１６ 角屋戎橋ビル 地下１階",
    "source": "gmaps_places"
  },
  "道頓堀クルーズ 難波 大阪 日本": {
    "lat": 34.6691432,
    "lon": 135.502709,
    "display_name": "〒542-0084 大阪府大阪市中央区宗右衛門町７−１３",
    "source": "gmaps_places"
  },
  "なんばオリエンタルホテル 難波 大阪 日本": {
    "lat": 34.6657666,
    "lon": 135.5037294,
    "display_name": "〒542-0074 大阪府大阪市中央区千日前２丁目８−１７",
    "source": "gmaps_places"
  },
  "和牛焼肉いらか 梅田店 難波 大阪 日本": {
    "lat": 34.6662138,
    "lon": 135.5010177,
    "display_name": "〒542-0076 大阪府大阪市中央区難波３丁目７−２２ 中野ビル 2階",
    "source": "gmaps_places"
  },
  "梅田スカイビル 空中庭園展望台 大阪 大阪 日本": {
    "lat": 34.7052993,
    "lon": 135.490172,
    "display_name": "〒531-6039 大阪府大阪市北区大淀中１丁目１−８８ 梅田スカイビル",
    "source": "gmaps_places"
  },
  "梅田の寿司屋でランチ 大阪 大阪 日本": {
    "lat": 34.7040309,
    "lon": 135.494826,
    "display_name": "〒530-0011 大阪府大阪市北区大深町４−２０ グランフロント大阪南館 8F",
    "source": "gmaps_places"
  },
  "梅田のショッピング 大阪 大阪 日本": {
    "lat": 34.7028866,
    "lon": 135.4953236,
    "display_name": "〒530-8558 大阪府大阪市北区梅田３丁目１−３",
    "source": "gmaps_places"
  },
  "梅田の串揚げ屋で夕食 大阪 大阪 日本": {
    "lat": 34.700027,
    "lon": 135.4984031,
    "display_name": "〒530-0001 大阪府大阪市北区梅田１丁目１１−４ 大阪駅前第4ビル 地下2階",
    "source": "gmaps_places"
  },
  "ホテルグランヴィア大阪 チェックイン 大阪 大阪 日本": {
    "lat": 34.701726,
    "lon": 135.4963754,
    "display_name": "〒530-0001 大阪府大阪市北区梅田３丁目１−１",
    "source": "gmaps_places"
  },
  "なんばグランド花月 大阪 大阪 日本": {
    "lat": 34.6649869,
    "lon": 135.5036556,
    "display_name": "〒542-0075 大阪府大阪市中央区難波千日前１１−６",
    "source": "gmaps_places"
  },
  "すしざんまい 難波店 大阪 大阪 日本": {
    "lat": 34.6683774,
    "lon": 135.5014641,
    "display_name": "〒542-0071 大阪府大阪市中央区道頓堀１丁目８−１６ 角屋戎橋ビル 地下１階",
    "source": "gmaps_places"
  },
  "道頓堀クルーズ 大阪 大阪 日本": {
    "lat": 34.6691432,
    "lon": 135.502709,
    "display_name": "〒542-0084 大阪府大阪市中央区宗右衛門町７−１３",
    "source": "gmaps_places"
  },
  "和牛焼肉いらか 梅田店 大阪 大阪 日本": {
    "lat": 34.7007348,
    "lon": 135.5010682,
    "display_name": "〒530-0057 大阪府大阪市北区曾根崎２丁目１０−21 第３ 河合ビル １階",
    "source": "gmaps_places"
  },
  "移動（出発） 大阪 大阪 日本": {
    "lat": 34.7028739,
    "lon": 135.4960048,
    "display_name": "〒530-0001 大阪府大阪市北区梅田３丁目１−１ JR大阪駅構内",
    "source": "gmaps_places"
  },
  "移動（帰路） 大阪 大阪 日本": {
    "lat": 34.69797399999999,
    "lon": 135.4992398,
    "display_name": "〒530-0002 大阪府大阪市北区曾根崎新地１丁目１１−２０",
    "source": "gmaps_places"
  },
  "新大阪駅近辺のホテルにチェックイン 大阪 大阪 日本": {
    "lat": 34.7391832,
    "lon": 135.4990472,
    "display_name": "〒532-0003 大阪府大阪市淀川区宮原２丁目１３−４",
    "source": "gmaps_places"
  },
  "焼肉たんか 梅田本店でランチ 梅田 大阪 日本": {
    "lat": 34.7025565,
    "lon": 135.5008427,
    "display_name": "〒530-0018 大阪府大阪市北区小松原町１−１６ モコビル 4階",
    "source": "gmaps_places"
  },
  "グランフロント大阪でショッピング 梅田 大阪 日本": {
    "lat": 34.7038664,
    "lon": 135.4949205,
    "display_name": "〒530-0011 大阪府大阪市北区大深町４−２０",
    "source": "gmaps_places"
  },
  "梅田スカイビル 飛天でディナー 梅田 大阪 日本": {
    "lat": 34.7052872,
    "lon": 135.4896527,
    "display_name": "〒531-6023 大阪府大阪市北区大淀中１丁目１−８８",
    "source": "gmaps_places"
  },
  "アパホテル〈天王寺駅前〉チェックアウト 天王寺 大阪 日本": {
    "lat": 34.647204,
    "lon": 135.511924,
    "display_name": "〒545-0052 大阪府大阪市阿倍野区阿倍野筋１丁目４−１１",
    "source": "gmaps_places"
  },
  "四天王寺の見学 天王寺 大阪 日本": {
    "lat": 34.6544581,
    "lon": 135.5165239,
    "display_name": "〒543-0051 大阪府大阪市天王寺区四天王寺１丁目１１−１８",
    "source": "gmaps_places"
  },
  "一鮮でランチ 天王寺 大阪 日本": {
    "lat": 34.64886500000001,
    "lon": 135.513626,
    "display_name": "〒543-0056 大阪府大阪市天王寺区堀越町１３−１５",
    "source": "gmaps_places"
  },
  "天王寺公園散策 天王寺 大阪 日本": {
    "lat": 34.6507248,
    "lon": 135.5104151,
    "display_name": "〒543-0063 大阪府大阪市天王寺区茶臼山町５−５５",
    "source": "gmaps_places"
  },
  "あべのハルカス展望台 天王寺 大阪 日本": {
    "lat": 34.6463062,
    "lon": 135.5133091,
    "display_name": "〒545-6016 大阪府大阪市阿倍野区阿倍野筋１丁目１−４３",
    "source": "gmaps_places"
  },
  "やきとり 吟八でディナー 天王寺 大阪 日本": {
    "lat": 34.6411435,
    "lon": 135.5133631,
    "display_name": "〒545-0052 大阪府大阪市阿倍野区阿倍野筋３丁目８−３６",
    "source": "gmaps_places"
  },
  "焼肉たんか 梅田本店でランチ 大阪 大阪 日本": {
    "lat": 34.7025565,
    "lon": 135.5008427,
    "display_name": "〒530-0018 大阪府大阪市北区小松原町１−１６ モコビル 4階",
    "source": "gmaps_places"
  },
  "グランフロント大阪でショッピング 大阪 大阪 日本": {
    "lat": 34.7038664,
    "lon": 135.4949205,
    "display_name": "〒530-0011 大阪府大阪市北区大深町４−２０",
    "source": "gmaps_places"
  },
  "梅田スカイビル 飛天でディナー 大阪 大阪 日本": {
    "lat": 34.7052872,
    "lon": 135.4896527,
    "display_name": "〒531-6023 大阪府大阪市北区大淀中１丁目１−８８",
    "source": "gmaps_places"
  },
  "四天王寺の見学 大阪 大阪 日本": {
    "lat": 34.6544581,
    "lon": 135.5165239,
    "display_name": "〒543-0051 大阪府大阪市天王寺区四天王寺１丁目１１−１８",
    "source": "gmaps_places"
  },
  "一鮮でランチ 大阪 大阪 日本": {
    "lat": 34.6953992,
    "lon": 135.5303793,
    "display_name": "〒534-0025 大阪府大阪市都島区片町２丁目６−２ M.P.C.京橋ビル",
    "source": "gmaps_places"
  },
  "天王寺公園散策 大阪 大阪 日本": {
    "lat": 34.6507248,
    "lon": 135.5104151,
    "display_name": "〒543-0063 大阪府大阪市天王寺区茶臼山町５−５５",
    "source": "gmaps_places"
  },
  "あべのハルカス展望台 大阪 大阪 日本": {
    "lat": 34.6463062,
    "lon": 135.5133091,
    "display_name": "〒545-6016 大阪府大阪市阿倍野区阿倍野筋１丁目１−４３",
    "source": "gmaps_places"
  },
  "やきとり 吟八でディナー 大阪 大阪 日本": {
    "lat": 35.6855544,
    "lon": 139.7751198,
    "display_name": "〒103-0022 東京都中央区日本橋室町１丁目１１−２ 松楽ビル 3F",
    "source": "gmaps_places"
  },
  "道頓堀 たいこ茶屋 梅田 大阪 日本": {
    "lat": 34.7005588,
    "lon": 135.4957339,
    "display_name": "日本、〒530-0001 大阪府大阪市北区梅田",
    "source": "gmaps_geocode"
  },
  "鮨神楽 梅田 大阪 日本": {
    "lat": 35.666564,
    "lon": 139.7545917,
    "display_name": "〒105-0004 東京都港区新橋３丁目２−３ 千代川ビル 1階C",
    "source": "gmaps_places"
  },
  "グランヴィア大阪 梅田 大阪 日本": {
    "lat": 34.701726,
    "lon": 135.4963754,
    "display_name": "〒530-0001 大阪府大阪市北区梅田３丁目１−１",
    "source": "gmaps_places"
  },
  "旬の味 いせや 梅田 大阪 日本": {
    "lat": 34.7108152,
    "lon": 135.4981583,
    "display_name": "〒531-0072 大阪府大阪市北区豊崎３丁目１５−８ 富士通ビル",
    "source": "gmaps_places"
  },
  "ショッピング 梅田 大阪 日本": {
    "lat": 34.7028866,
    "lon": 135.4953236,
    "display_name": "〒530-8558 大阪府大阪市北区梅田３丁目１−３",
    "source": "gmaps_places"
  },
  "炭火焼肉 紀州 梅田店 梅田 大阪 日本": {
    "lat": 34.7037239,
    "lon": 135.5032994,
    "display_name": "〒530-0027 大阪府大阪市北区堂山町８−２１ 石本ビル B1",
    "source": "gmaps_places"
  },
  "ホテルグランヴィア大阪に戻る 梅田 大阪 日本": {
    "lat": 34.701726,
    "lon": 135.4963754,
    "display_name": "〒530-0001 大阪府大阪市北区梅田３丁目１−１",
    "source": "gmaps_places"
  },
  "梅田スカイビル展望台 大阪 大阪 日本": {
    "lat": 34.7052872,
    "lon": 135.4896527,
    "display_name": "〒531-6023 大阪府大阪市北区大淀中１丁目１−８８",
    "source": "gmaps_places"
  },
  "道頓堀 たいこ茶屋 大阪 大阪 日本": {
    "lat": 35.6954539,
    "lon": 139.7822759,
    "display_name": "〒103-0002 東京都中央区日本橋馬喰町２丁目３−２ セントピアビル B1",
    "source": "gmaps_places"
  },
  "鮨神楽 大阪 大阪 日本": {
    "lat": 35.666564,
    "lon": 139.7545917,
    "display_name": "〒105-0004 東京都港区新橋３丁目２−３ 千代川ビル 1階C",
    "source": "gmaps_places"
  },
  "グランヴィア大阪 大阪 大阪 日本": {
    "lat": 34.701726,
    "lon": 135.4963754,
    "display_name": "〒530-0001 大阪府大阪市北区梅田３丁目１−１",
    "source": "gmaps_places"
  },
  "梅田スカイビル空中庭園展望台 大阪 大阪 日本": {
    "lat": 34.7052993,
    "lon": 135.490172,
    "display_name": "〒531-6039 大阪府大阪市北区大淀中１丁目１−８８ 梅田スカイビル",
    "source": "gmaps_places"
  },
  "旬の味 いせや 大阪 大阪 日本": {
    "lat": 34.7108152,
    "lon": 135.4981583,
    "display_name": "〒531-0072 大阪府大阪市北区豊崎３丁目１５−８ 富士通ビル",
    "source": "gmaps_places"
  },
  "ショッピング 大阪 大阪 日本": {
    "lat": 34.702411,
    "lon": 135.495917,
    "display_name": "〒530-0001 大阪府大阪市北区梅田３丁目１−３",
    "source": "gmaps_places"
  },
  "炭火焼肉 紀州 梅田店 大阪 大阪 日本": {
    "lat": 34.6994706,
    "lon": 135.5011466,
    "display_name": "〒530-0057 大阪府大阪市北区曾根崎２丁目５−２２ 日宝パティオ曽根崎 1F",
    "source": "gmaps_places"
  },
  "神楽坂 炭火焼鳥 梅田店 でランチ 梅田 大阪 日本": {
    "lat": 34.7035768,
    "lon": 135.500581,
    "display_name": "〒530-0017 大阪府大阪市北区角田町６−９",
    "source": "gmaps_places"
  },
  "心斎橋筋商店街でのショッピング 梅田 大阪 日本": {
    "lat": 34.6710169,
    "lon": 135.5013394,
    "display_name": "〒542-0085 大阪府大阪市中央区心斎橋筋２丁目２−２２",
    "source": "gmaps_places"
  },
  "ルポンドシェーズでディナー 梅田 大阪 日本": {
    "lat": 34.6922128,
    "lon": 135.5023252,
    "display_name": "〒541-0041 大阪府大阪市中央区北浜３丁目５−２９ 日本生命淀屋橋ビル B1",
    "source": "gmaps_places"
  },
  "ホテルグランヴィア大阪にチェックイン 梅田 大阪 日本": {
    "lat": 34.701726,
    "lon": 135.4963754,
    "display_name": "〒530-0001 大阪府大阪市北区梅田３丁目１−１",
    "source": "gmaps_places"
  },
  "南海グリルホテルで宿泊（チェックアウト） 難波 大阪 日本": {
    "lat": 34.66415740000001,
    "lon": 135.5011441,
    "display_name": "〒542-0076 大阪府大阪市中央区難波５丁目１−６０",
    "source": "gmaps_places"
  },
  "難波パークスでショッピング 難波 大阪 日本": {
    "lat": 34.6616083,
    "lon": 135.5019349,
    "display_name": "〒556-0011 大阪府大阪市浪速区難波中２丁目１０−７０",
    "source": "gmaps_places"
  },
  "名物お好み焼き 鶴橋風月でランチ 難波 大阪 日本": {
    "lat": 34.66179750000001,
    "lon": 135.5029323,
    "display_name": "〒542-0076 大阪府大阪市中央区難波５丁目１−６０ なんばCITY南館 1F",
    "source": "gmaps_places"
  },
  "なんばグランド花月で笑いの舞台を楽しむ 難波 大阪 日本": {
    "lat": 34.6649869,
    "lon": 135.5036556,
    "display_name": "〒542-0075 大阪府大阪市中央区難波千日前１１−６",
    "source": "gmaps_places"
  },
  "旬の炭火焼鳥 やまやで夕食 難波 大阪 日本": {
    "lat": 34.6991524,
    "lon": 135.5012517,
    "display_name": "〒530-0057 大阪府大阪市北区曾根崎２丁目５−３７",
    "source": "gmaps_places"
  },
  "神楽坂 炭火焼鳥 梅田店 でランチ 大阪 大阪 日本": {
    "lat": 34.7035768,
    "lon": 135.500581,
    "display_name": "〒530-0017 大阪府大阪市北区角田町６−９",
    "source": "gmaps_places"
  },
  "心斎橋筋商店街でのショッピング 大阪 大阪 日本": {
    "lat": 34.6710169,
    "lon": 135.5013394,
    "display_name": "〒542-0085 大阪府大阪市中央区心斎橋筋２丁目２−２２",
    "source": "gmaps_places"
  },
  "ルポンドシェーズでディナー 大阪 大阪 日本": {
    "lat": 34.6922128,
    "lon": 135.5023252,
    "display_name": "〒541-0041 大阪府大阪市中央区北浜３丁目５−２９ 日本生命淀屋橋ビル B1",
    "source": "gmaps_places"
  },
  "ホテルグランヴィア大阪にチェックイン 大阪 大阪 日本": {
    "lat": 34.701726,
    "lon": 135.4963754,
    "display_name": "〒530-0001 大阪府大阪市北区梅田３丁目１−１",
    "source": "gmaps_places"
  },
  "難波パークスでショッピング 大阪 大阪 日本": {
    "lat": 34.6616083,
    "lon": 135.5019349,
    "display_name": "〒556-0011 大阪府大阪市浪速区難波中２丁目１０−７０",
    "source": "gmaps_places"
  },
  "名物お好み焼き 鶴橋風月でランチ 大阪 大阪 日本": {
    "lat": 34.665608,
    "lon": 135.529773,
    "display_name": "〒543-0025 大阪府大阪市天王寺区下味原町２−１８",
    "source": "gmaps_places"
  },
  "なんばグランド花月で笑いの舞台を楽しむ 大阪 大阪 日本": {
    "lat": 34.6649869,
    "lon": 135.5036556,
    "display_name": "〒542-0075 大阪府大阪市中央区難波千日前１１−６",
    "source": "gmaps_places"
  },
  "旬の炭火焼鳥 やまやで夕食 大阪 大阪 日本": {
    "lat": 34.6991524,
    "lon": 135.5012517,
    "display_name": "〒530-0057 大阪府大阪市北区曾根崎２丁目５−３７",
    "source": "gmaps_places"
  },
  "牛かつ 京都勝牛 梅田店 梅田 大阪 日本": {
    "lat": 34.7047407,
    "lon": 135.4973941,
    "display_name": "〒530-0012 大阪府大阪市北区芝田１丁目１−２７ サセウメダビル Ｂ１Ｆ",
    "source": "gmaps_places"
  },
  "ショッピング＆散策 梅田 大阪 日本": {
    "lat": 34.7028186,
    "lon": 135.4985323,
    "display_name": "〒530-8350 大阪府大阪市北区角田町８−７",
    "source": "gmaps_places"
  },
  "四天王寺 天王寺 大阪 日本": {
    "lat": 34.6544581,
    "lon": 135.5165239,
    "display_name": "〒543-0051 大阪府大阪市天王寺区四天王寺１丁目１１−１８",
    "source": "gmaps_places"
  },
  "天王寺カフェ 天王寺 大阪 日本": {
    "lat": 34.6478022,
    "lon": 135.5158484,
    "display_name": "〒543-0055 大阪府大阪市天王寺区悲田院町８−１１",
    "source": "gmaps_places"
  },
  "あべのハルカスレストラン街 天王寺 大阪 日本": {
    "lat": 34.6460902,
    "lon": 135.5134794,
    "display_name": "〒545-0052 大阪府大阪市阿倍野区阿倍野筋１丁目１−４３ あべのハルカス近鉄本店 タワー館 １２階～１４階",
    "source": "gmaps_places"
  },
  "アパホテル〈天王寺駅前〉宿泊 天王寺 大阪 日本": {
    "lat": 34.647204,
    "lon": 135.511924,
    "display_name": "〒545-0052 大阪府大阪市阿倍野区阿倍野筋１丁目４−１１",
    "source": "gmaps_places"
  },
  "牛かつ 京都勝牛 梅田店 大阪 大阪 日本": {
    "lat": 34.7047407,
    "lon": 135.4973941,
    "display_name": "〒530-0012 大阪府大阪市北区芝田１丁目１−２７ サセウメダビル Ｂ１Ｆ",
    "source": "gmaps_places"
  },
  "ショッピング＆散策 大阪 大阪 日本": {
    "lat": 34.702411,
    "lon": 135.495917,
    "display_name": "〒530-0001 大阪府大阪市北区梅田３丁目１−３",
    "source": "gmaps_places"
  },
  "大阪王将 梅田店 大阪 大阪 日本": {
    "lat": 34.7020173,
    "lon": 135.5027588,
    "display_name": "〒530-0051 大阪府大阪市北区太融寺町６−９ 日野商事ビル",
    "source": "gmaps_places"
  },
  "ホテルグランヴィア大阪 大阪 大阪 日本": {
    "lat": 34.701726,
    "lon": 135.4963754,
    "display_name": "〒530-0001 大阪府大阪市北区梅田３丁目１−１",
    "source": "gmaps_places"
  },
  "四天王寺 大阪 大阪 日本": {
    "lat": 34.6544581,
    "lon": 135.5165239,
    "display_name": "〒543-0051 大阪府大阪市天王寺区四天王寺１丁目１１−１８",
    "source": "gmaps_places"
  },
  "天王寺カフェ 大阪 大阪 日本": {
    "lat": 34.6478022,
    "lon": 135.5158484,
    "display_name": "〒543-0055 大阪府大阪市天王寺区悲田院町８−１１",
    "source": "gmaps_places"
  },
  "天王寺動物園 大阪 大阪 日本": {
    "lat": 34.6510957,
    "lon": 135.5084344,
    "display_name": "〒543-0063 大阪府大阪市天王寺区茶臼山町１−１０８",
    "source": "gmaps_places"
  },
  "あべのハルカスレストラン街 大阪 大阪 日本": {
    "lat": 34.6460902,
    "lon": 135.5134794,
    "display_name": "〒545-0052 大阪府大阪市阿倍野区阿倍野筋１丁目１−４３ あべのハルカス近鉄本店 タワー館 １２階～１４階",
    "source": "gmaps_places"
  },
  "米や 祇園店 祇園 京都 日本": {
    "lat": 35.0041235,
    "lon": 135.7771946,
    "display_name": "〒605-0073 京都府京都市東山区 衹園町北側296",
    "source": "gmaps_places"
  },
  "八坂神社 祇園 京都 日本": {
    "lat": 35.0036559,
    "lon": 135.7785534,
    "display_name": "〒605-0073 京都府京都市東山区祇園町北側６２５",
    "source": "gmaps_places"
  },
  "祇園甲部歌舞練場で舞妓の舞鑑賞 祇園 京都 日本": {
    "lat": 35.0014632,
    "lon": 135.7758397,
    "display_name": "〒605-0074 京都府京都市東山区祇園町南側５７０−２",
    "source": "gmaps_places"
  },
  "祇園さゝ木 祇園 京都 日本": {
    "lat": 34.9989009,
    "lon": 135.774996,
    "display_name": "〒605-0811 京都府京都市東山区小松町５６６−２７",
    "source": "gmaps_places"
  },
  "祇園 華色 祇園 京都 日本": {
    "lat": 34.9972518,
    "lon": 135.7752687,
    "display_name": "〒605-0813 京都府京都市東山区轆轤町１１９−３",
    "source": "gmaps_places"
  },
  "嵐山竹林の小径 嵐山 京都 日本": {
    "lat": 35.0168187,
    "lon": 135.6713013,
    "display_name": "〒616-8394 京都府京都市右京区嵯峨小倉山田淵山町",
    "source": "gmaps_places"
  },
  "渡月橋 嵐山 京都 日本": {
    "lat": 35.0128769,
    "lon": 135.6777748,
    "display_name": "〒616-8384 京都府京都市右京区嵯峨天龍寺芒ノ馬場町１−５",
    "source": "gmaps_places"
  },
  "嵐山茶寮 嵐山 京都 日本": {
    "lat": 35.0137742,
    "lon": 135.6732767,
    "display_name": "〒616-8385 京都府京都市右京区嵯峨天龍寺芒ノ馬場町１２ 翠嵐ラグジュアリーコレクションホテル京都 敷地内",
    "source": "gmaps_places"
  },
  "嵐山温泉 彩四季の宿 嵐山 京都 日本": {
    "lat": 35.0113254,
    "lon": 135.6771376,
    "display_name": "〒616-0004 京都府京都市西京区嵐山中尾下町５７",
    "source": "gmaps_places"
  },
  "米や 祇園店 京都 京都 日本": {
    "lat": 35.0041235,
    "lon": 135.7771946,
    "display_name": "〒605-0073 京都府京都市東山区 衹園町北側296",
    "source": "gmaps_places"
  },
  "祇園甲部歌舞練場で舞妓の舞鑑賞 京都 京都 日本": {
    "lat": 35.0014632,
    "lon": 135.7758397,
    "display_name": "〒605-0074 京都府京都市東山区祇園町南側５７０−２",
    "source": "gmaps_places"
  },
  "祇園さゝ木 京都 京都 日本": {
    "lat": 34.9989009,
    "lon": 135.774996,
    "display_name": "〒605-0811 京都府京都市東山区小松町５６６−２７",
    "source": "gmaps_places"
  },
  "祇園 華色 京都 京都 日本": {
    "lat": 34.9972518,
    "lon": 135.7752687,
    "display_name": "〒605-0813 京都府京都市東山区轆轤町１１９−３",
    "source": "gmaps_places"
  },
  "嵐山竹林の小径 京都 京都 日本": {
    "lat": 35.0168187,
    "lon": 135.6713013,
    "display_name": "〒616-8394 京都府京都市右京区嵯峨小倉山田淵山町",
    "source": "gmaps_places"
  },
  "天龍寺 京都 京都 日本": {
    "lat": 35.0158379,
    "lon": 135.6737654,
    "display_name": "〒616-8385 京都府京都市右京区嵯峨天龍寺芒ノ馬場町６８",
    "source": "gmaps_places"
  },
  "渡月橋 京都 京都 日本": {
    "lat": 35.0128769,
    "lon": 135.6777748,
    "display_name": "〒616-8384 京都府京都市右京区嵯峨天龍寺芒ノ馬場町１−５",
    "source": "gmaps_places"
  },
  "嵐山茶寮 京都 京都 日本": {
    "lat": 35.0137742,
    "lon": 135.6732767,
    "display_name": "〒616-8385 京都府京都市右京区嵯峨天龍寺芒ノ馬場町１２ 翠嵐ラグジュアリーコレクションホテル京都 敷地内",
    "source": "gmaps_places"
  },
  "移動（出発） みなとみらい 横浜 日本": {
    "lat": 35.4577445,
    "lon": 139.631784,
    "display_name": "〒220-0012 神奈川県横浜市西区みなとみらい３丁目５−１",
    "place_id": "ChIJ29nqzUJcGGAR65wFxPgS4dE",
    "maps_url": "https://www.google.com/maps/place/?q=place_id:ChIJ29nqzUJcGGAR65wFxPgS4dE",
    "source": "gmaps_places"
  },
  "横浜ランドマークタワー展望フロア みなとみらい 横浜 日本": {
    "lat": 35.4545776,
    "lon": 139.6314788,
    "display_name": "〒220-0012 神奈川県横浜市西区みなとみらい２丁目２−１ 横浜ランドマークタワー 69F",
    "place_id": "ChIJEaFmc11cGGARfdCTliSvsls",
    "maps_url": "https://www.google.com/maps/place/?q=place_id:ChIJEaFmc11cGGARfdCTliSvsls",
    "source": "gmaps_places"
  },
  "アクアミュージアム レストラン みなとみらい 横浜 日本": {
    "lat": 35.337416,
    "lon": 139.6472816,
    "display_name": "〒236-0006 神奈川県横浜市金沢区八景島１ 横浜・八景島シーパラダイスアクアミュージアム",
    "place_id": "ChIJP6aDUv1BGGARce7LFbIbELE",
    "maps_url": "https://www.google.com/maps/place/?q=place_id:ChIJP6aDUv1BGGARce7LFbIbELE",
    "source": "gmaps_places"
  },
  "赤レンガ倉庫 みなとみらい 横浜 日本": {
    "lat": 35.4526321,
    "lon": 139.6428944,
    "display_name": "〒231-0001 神奈川県横浜市中区新港１丁目１",
    "place_id": "ChIJSXGAhfhcGGARcz3MKth9lJQ",
    "maps_url": "https://www.google.com/maps/place/?q=place_id:ChIJSXGAhfhcGGARcz3MKth9lJQ",
    "source": "gmaps_places"
  },
  "シェフズテーブル みなとみらい 横浜 日本": {
    "lat": 35.454363,
    "lon": 139.631516,
    "display_name": "〒220-0012 神奈川県横浜市西区みなとみらい２丁目２−１ 横浜ランドマークタワー 5階",
    "place_id": "ChIJEaFmc11cGGARbohQHSGAXx4",
    "maps_url": "https://www.google.com/maps/place/?q=place_id:ChIJEaFmc11cGGARbohQHSGAXx4",
    "source": "gmaps_places"
  },
  "横浜ロイヤルパークホテル みなとみらい 横浜 日本": {
    "lat": 35.4543389,
    "lon": 139.6313791,
    "display_name": "〒220-0012 神奈川県横浜市西区みなとみらい２丁目２−１−３",
    "place_id": "ChIJPSEVo11cGGARRJdoexmhH_I",
    "maps_url": "https://www.google.com/maps/place/?q=place_id:ChIJPSEVo11cGGARRJdoexmhH_I",
    "source": "gmaps_places"
  },
  "横浜中華街散策 中華街 横浜 日本": {
    "lat": 35.4434459,
    "lon": 139.6460909,
    "display_name": "〒231-0023 神奈川県横浜市中区山下町",
    "place_id": "ChIJ__-Le-9cGGARNY-CTSHwq5A",
    "maps_url": "https://www.google.com/maps/place/?q=place_id:ChIJ__-Le-9cGGARNY-CTSHwq5A",
    "source": "gmaps_places"
  },
  "聘珍樓でランチ 中華街 横浜 日本": {
    "lat": 35.44333659999999,
    "lon": 139.6444803,
    "display_name": "〒231-0023 神奈川県横浜市中区山下町１５３",
    "place_id": "ChIJN5Rzu-RcGGARHASwo8SYs3w",
    "maps_url": "https://www.google.com/maps/place/?q=place_id:ChIJN5Rzu-RcGGARHASwo8SYs3w",
    "source": "gmaps_places"
  },
  "山下公園散策 中華街 横浜 日本": {
    "lat": 35.4457655,
    "lon": 139.6497793,
    "display_name": "〒231-0023 神奈川県横浜市中区山下町２７９",
    "place_id": "ChIJt1e7seJcGGARbDdyYvFJuuM",
    "maps_url": "https://www.google.com/maps/place/?q=place_id:ChIJt1e7seJcGGARbDdyYvFJuuM",
    "source": "gmaps_places"
  },
  "ランドマークタワー展望台 中華街 横浜 日本": {
    "lat": 35.4545776,
    "lon": 139.6314788,
    "display_name": "〒220-0012 神奈川県横浜市西区みなとみらい２丁目２−１ 横浜ランドマークタワー 69F",
    "place_id": "ChIJEaFmc11cGGARfdCTliSvsls",
    "maps_url": "https://www.google.com/maps/place/?q=place_id:ChIJEaFmc11cGGARfdCTliSvsls",
    "source": "gmaps_places"
  },
  "横浜大飯店でディナー 中華街 横浜 日本": {
    "lat": 35.4432812,
    "lon": 139.6440983,
    "display_name": "〒231-0023 神奈川県横浜市中区山下町１５４",
    "place_id": "ChIJIdwXueRcGGAR62jAgMUu5rI",
    "maps_url": "https://www.google.com/maps/place/?q=place_id:ChIJIdwXueRcGGAR62jAgMUu5rI",
    "source": "gmaps_places"
  },
  "ローズホテル横浜で宿泊 中華街 横浜 日本": {
    "lat": 35.4440508,
    "lon": 139.6467447,
    "display_name": "〒231-0023 神奈川県横浜市中区山下町７７",
    "place_id": "ChIJN4XiPeNcGGARImCozDs8_1s",
    "maps_url": "https://www.google.com/maps/place/?q=place_id:ChIJN4XiPeNcGGARImCozDs8_1s",
    "source": "gmaps_places"
  },
  "横浜ランドマークタワー展望フロア 横浜 横浜 日本": {
    "lat": 35.4545776,
    "lon": 139.6314788,
    "display_name": "〒220-0012 神奈川県横浜市西区みなとみらい２丁目２−１ 横浜ランドマークタワー 69F",
    "place_id": "ChIJEaFmc11cGGARfdCTliSvsls",
    "maps_url": "https://www.google.com/maps/place/?q=place_id:ChIJEaFmc11cGGARfdCTliSvsls",
    "source": "gmaps_places"
  },
  "アクアミュージアム レストラン 横浜 横浜 日本": {
    "lat": 35.337416,
    "lon": 139.6472816,
    "display_name": "〒236-0006 神奈川県横浜市金沢区八景島１ 横浜・八景島シーパラダイスアクアミュージアム",
    "place_id": "ChIJP6aDUv1BGGARce7LFbIbELE",
    "maps_url": "https://www.google.com/maps/place/?q=place_id:ChIJP6aDUv1BGGARce7LFbIbELE",
    "source": "gmaps_places"
  },
  "赤レンガ倉庫 横浜 横浜 日本": {
    "lat": 35.45262659999999,
    "lon": 139.6429077,
    "display_name": "〒231-0001 神奈川県横浜市中区新港１丁目１−２ 横浜赤レンガ倉庫2号館",
    "place_id": "ChIJicQOgfhcGGARWUvRNYUuFQg",
    "maps_url": "https://www.google.com/maps/place/?q=place_id:ChIJicQOgfhcGGARWUvRNYUuFQg",
    "source": "gmaps_places"
  },
  "シェフズテーブル 横浜 横浜 日本": {
    "lat": 35.490825,
    "lon": 139.6486793,
    "display_name": "〒221-0014 神奈川県横浜市神奈川区入江２丁目１０",
    "place_id": "ChIJjdCCNAhdGGARRV_2gvDl7Hk",
    "maps_url": "https://www.google.com/maps/place/?q=place_id:ChIJjdCCNAhdGGARRV_2gvDl7Hk",
    "source": "gmaps_places"
  },
  "横浜ロイヤルパークホテル 横浜 横浜 日本": {
    "lat": 35.4543389,
    "lon": 139.6313791,
    "display_name": "〒220-0012 神奈川県横浜市西区みなとみらい２丁目２−１−３",
    "place_id": "ChIJPSEVo11cGGARRJdoexmhH_I",
    "maps_url": "https://www.google.com/maps/place/?q=place_id:ChIJPSEVo11cGGARRJdoexmhH_I",
    "source": "gmaps_places"
  },
  "横浜中華街散策 横浜 横浜 日本": {
    "lat": 35.4434459,
    "lon": 139.6460909,
    "display_name": "〒231-0023 神奈川県横浜市中区山下町",
    "place_id": "ChIJ__-Le-9cGGARNY-CTSHwq5A",
    "maps_url": "https://www.google.com/maps/place/?q=place_id:ChIJ__-Le-9cGGARNY-CTSHwq5A",
    "source": "gmaps_places"
  },
  "聘珍樓でランチ 横浜 横浜 日本": {
    "lat": 35.44333659999999,
    "lon": 139.6444803,
    "display_name": "〒231-0023 神奈川県横浜市中区山下町１５３",
    "place_id": "ChIJN5Rzu-RcGGARHASwo8SYs3w",
    "maps_url": "https://www.google.com/maps/place/?q=place_id:ChIJN5Rzu-RcGGARHASwo8SYs3w",
    "source": "gmaps_places"
  },
  "山下公園散策 横浜 横浜 日本": {
    "lat": 35.4457655,
    "lon": 139.6497793,
    "display_name": "〒231-0023 神奈川県横浜市中区山下町２７９",
    "place_id": "ChIJt1e7seJcGGARbDdyYvFJuuM",
    "maps_url": "https://www.google.com/maps/place/?q=place_id:ChIJt1e7seJcGGARbDdyYvFJuuM",
    "source": "gmaps_places"
  },
  "ランドマークタワー展望台 横浜 横浜 日本": {
    "lat": 35.4545776,
    "lon": 139.6314788,
    "display_name": "〒220-0012 神奈川県横浜市西区みなとみらい２丁目２−１ 横浜ランドマークタワー 69F",
    "place_id": "ChIJEaFmc11cGGARfdCTliSvsls",
    "maps_url": "https://www.google.com/maps/place/?q=place_id:ChIJEaFmc11cGGARfdCTliSvsls",
    "source": "gmaps_places"
  },
  "横浜大飯店でディナー 横浜 横浜 日本": {
    "lat": 35.4432812,
    "lon": 139.6440983,
    "display_name": "〒231-0023 神奈川県横浜市中区山下町１５４",
    "place_id": "ChIJIdwXueRcGGAR62jAgMUu5rI",
    "maps_url": "https://www.google.com/maps/place/?q=place_id:ChIJIdwXueRcGGAR62jAgMUu5rI",
    "source": "gmaps_places"
  },
  "横浜 日本": {
    "lat": 35.4436739,
    "lon": 139.6379639,
    "display_name": "神奈川県横浜市",
    "place_id": "ChIJCWW2u-xbGGARAFQoYPaDlgY",
    "maps_url": "https://www.google.com/maps/place/?q=place_id:ChIJCWW2u-xbGGARAFQoYPaDlgY",
    "source": "gmaps_places"
  },
  "移動（出発） 岐阜市 岐阜 日本": {
    "lat": 35.4144521,
    "lon": 136.757324,
    "display_name": "〒500-8842 岐阜県岐阜市金町６丁目４",
    "source": "gmaps_places"
  },
  "岐阜城 岐阜市 岐阜 日本": {
    "lat": 35.433918,
    "lon": 136.7820713,
    "display_name": "〒500-0000 岐阜県岐阜市天主閣18番地",
    "source": "gmaps_places"
  },
  "岐阜名物 みそかつ みそまる 岐阜市 岐阜 日本": {
    "lat": 35.4176129,
    "lon": 136.7588873,
    "display_name": "〒500-8878 岐阜県岐阜市神室町１丁目３９",
    "source": "gmaps_places"
  },
  "岐阜大仏 岐阜市 岐阜 日本": {
    "lat": 35.4325189,
    "lon": 136.7715056,
    "display_name": "岐阜県岐阜市大仏町",
    "source": "gmaps_places"
  },
  "長良川鵜飼い 岐阜市 岐阜 日本": {
    "lat": 35.4382469,
    "lon": 136.7726326,
    "display_name": "〒500-8009 岐阜県岐阜市湊町１ 鵜飼観覧船事務所",
    "source": "gmaps_places"
  },
  "ディナー イタリアン 岐阜市 岐阜 日本": {
    "lat": 35.4193787,
    "lon": 136.7601661,
    "display_name": "〒500-8833 岐阜県岐阜市神田町３丁目１３",
    "source": "gmaps_places"
  },
  "岐阜グランドホテル 岐阜市 岐阜 日本": {
    "lat": 35.4416384,
    "lon": 136.7836204,
    "display_name": "〒502-0071 岐阜県岐阜市長良６４８",
    "source": "gmaps_places"
  },
  "白川郷合掌造り集落訪問 白川村 岐阜 日本": {
    "lat": 36.2577967,
    "lon": 136.9061975,
    "display_name": "〒501-5627 岐阜県大野郡白川村荻町",
    "source": "gmaps_places"
  },
  "白川郷やままやで昼食 白川村 岐阜 日本": {
    "lat": 36.2571114,
    "lon": 136.9067078,
    "display_name": "〒501-5627 岐阜県大野郡白川村荻町７７５",
    "source": "gmaps_places"
  },
  "白川村散策ツアー 白川村 岐阜 日本": {
    "lat": 36.2619973,
    "lon": 136.9068822,
    "display_name": "〒501-5627 岐阜県大野郡白川村荻町１０８６",
    "source": "gmaps_places"
  },
  "白川郷の展望台 白川村 岐阜 日本": {
    "lat": 36.26043800000001,
    "lon": 136.8651994,
    "display_name": "〒501-5625 岐阜県大野郡白川村飯島",
    "source": "gmaps_places"
  },
  "白川郷あかりで夕食 白川村 岐阜 日本": {
    "lat": 36.2609517,
    "lon": 136.9069073,
    "display_name": "〒501-5627 岐阜県大野郡白川村荻町３７４−１",
    "source": "gmaps_places"
  },
  "白川郷の宿 白川村 岐阜 日本": {
    "lat": 36.2772387,
    "lon": 136.9023313,
    "display_name": "〒501-5625 岐阜県大野郡白川村飯島９０８−２",
    "source": "gmaps_places"
  },
  "岐阜城 岐阜 岐阜 日本": {
    "lat": 35.433918,
    "lon": 136.7820713,
    "display_name": "〒500-0000 岐阜県岐阜市天主閣18番地",
    "source": "gmaps_places"
  },
  "岐阜名物 みそかつ みそまる 岐阜 岐阜 日本": {
    "lat": 35.4176129,
    "lon": 136.7588873,
    "display_name": "〒500-8878 岐阜県岐阜市神室町１丁目３９",
    "source": "gmaps_places"
  },
  "岐阜大仏 岐阜 岐阜 日本": {
    "lat": 35.4325189,
    "lon": 136.7715056,
    "display_name": "岐阜県岐阜市大仏町",
    "source": "gmaps_places"
  },
  "長良川鵜飼い 岐阜 岐阜 日本": {
    "lat": 35.4382469,
    "lon": 136.7726326,
    "display_name": "〒500-8009 岐阜県岐阜市湊町１ 鵜飼観覧船事務所",
    "source": "gmaps_places"
  },
  "ディナー イタリアン 岐阜 岐阜 日本": {
    "lat": 35.4193787,
    "lon": 136.7601661,
    "display_name": "〒500-8833 岐阜県岐阜市神田町３丁目１３",
    "source": "gmaps_places"
  },
  "岐阜グランドホテル 岐阜 岐阜 日本": {
    "lat": 35.4416384,
    "lon": 136.7836204,
    "display_name": "〒502-0071 岐阜県岐阜市長良６４８",
    "source": "gmaps_places"
  },
  "白川郷合掌造り集落訪問 岐阜 岐阜 日本": {
    "lat": 36.2577967,
    "lon": 136.9061975,
    "display_name": "〒501-5627 岐阜県大野郡白川村荻町",
    "source": "gmaps_places"
  },
  "白川郷やままやで昼食 岐阜 岐阜 日本": {
    "lat": 36.2571114,
    "lon": 136.9067078,
    "display_name": "〒501-5627 岐阜県大野郡白川村荻町７７５",
    "source": "gmaps_places"
  },
  "白川村散策ツアー 岐阜 岐阜 日本": {
    "lat": 36.2619973,
    "lon": 136.9068822,
    "display_name": "〒501-5627 岐阜県大野郡白川村荻町１０８６",
    "source": "gmaps_places"
  },
  "白川郷の展望台 岐阜 岐阜 日本": {
    "lat": 36.26043800000001,
    "lon": 136.8651994,
    "display_name": "〒501-5625 岐阜県大野郡白川村飯島",
    "source": "gmaps_places"
  },
  "白川郷あかりで夕食 岐阜 岐阜 日本": {
    "lat": 36.2609517,
    "lon": 136.9069073,
    "display_name": "〒501-5627 岐阜県大野郡白川村荻町３７４−１",
    "source": "gmaps_places"
  },
  "岐阜 日本": {
    "lat": 35.7437491,
    "lon": 136.9805103,
    "display_name": "岐阜県",
    "source": "gmaps_places"
  },
  "一風堂 梅田店 梅田 大阪 日本": {
    "lat": 34.7034505,
    "lon": 135.5006098,
    "display_name": "〒530-0017 大阪府大阪市北区角田町６−７ 角田町ビル 1F",
    "source": "gmaps_places",
    "place_id": "ChIJ-1JXcpPmAGARkEABvLc_DwE",
    "website": "https://stores.ippudo.com/1022?utm_source=Yext&utm_medium=Yext&utm_campaign=Listings",
    "gmaps_url": "https://maps.google.com/?cid=76349777054351504"
  },
  "大阪市立科学館 梅田 大阪 日本": {
    "lat": 34.691228,
    "lon": 135.4915442,
    "display_name": "〒530-0005 大阪府大阪市北区中之島４丁目２−１",
    "source": "gmaps_places",
    "place_id": "ChIJrVid0PbmAGARVvoeAwYmgg4",
    "website": "https://www.sci-museum.jp/",
    "gmaps_url": "https://maps.google.com/?cid=1045439870767397462"
  },
  "肉のハナマサ 梅田店 梅田 大阪 日本": {
    "lat": 34.6751672,
    "lon": 135.47417,
    "display_name": "〒550-0027 大阪府大阪市西区九条１丁目１４−１８",
    "source": "gmaps_places",
    "place_id": "ChIJ6UYmHwDnAGARXB1dncbFdVc",
    "website": "https://www.hanamasa.co.jp/shop/osaka/kujo-ekimae.html",
    "gmaps_url": "https://maps.google.com/?cid=6302160710409198940"
  },
  "ウェスティンホテル大阪 梅田 大阪 日本": {
    "lat": 34.7046167,
    "lon": 135.4897048,
    "display_name": "〒531-0076 大阪府大阪市北区大淀中１丁目１−２０ 新梅田シティ内",
    "source": "gmaps_places",
    "place_id": "ChIJeaipYYjmAGARz_BOp1kkmAU",
    "website": "https://www.marriott.com/ja/hotels/osawi-the-westin-osaka/overview/",
    "gmaps_url": "https://maps.google.com/?cid=403112134127317199"
  },
  "天王寺都ホテル 天王寺 大阪 日本": {
    "lat": 34.6455698,
    "lon": 135.5157308,
    "display_name": "〒545-0053 大阪府大阪市阿倍野区松崎町１丁目２−８",
    "source": "gmaps_places",
    "place_id": "ChIJMTXa9-_dAGARbRVNn9CUjQ8",
    "website": "https://www.miyakohotels.ne.jp/tennoji/",
    "gmaps_url": "https://maps.google.com/?cid=1120715506031859053"
  },
  "天王寺和牛すき焼き 笑福 天王寺 大阪 日本": {
    "lat": 34.6438353,
    "lon": 135.5125302,
    "display_name": "〒545-0052 大阪府大阪市阿倍野区阿倍野筋２丁目４−４９ アベニューホール2・3F",
    "source": "gmaps_places",
    "place_id": "ChIJD2ZcR-7dAGARaBqfIx1eQpw",
    "website": "https://c081000.gorp.jp/",
    "gmaps_url": "https://maps.google.com/?cid=11259665497624353384"
  },
  "天王寺公園 天王寺 大阪 日本": {
    "lat": 34.6507248,
    "lon": 135.5104151,
    "display_name": "〒543-0063 大阪府大阪市天王寺区茶臼山町５−５５",
    "source": "gmaps_places",
    "place_id": "ChIJ5_QnR_HdAGARMEh6Uhj3FJA",
    "website": "https://www.tennoji-park.jp/",
    "gmaps_url": "https://maps.google.com/?cid=10382194724830857264"
  },
  "イタリアンダイニング Lino 天王寺 大阪 日本": {
    "lat": 34.6446684,
    "lon": 135.5131933,
    "display_name": "〒545-0052 大阪府大阪市阿倍野区阿倍野筋２丁目１−３５ ベッリーノダーツバーＤＤ",
    "source": "gmaps_places",
    "place_id": "ChIJmxJzMu7dAGAR4_7BNzYOvg4",
    "website": "https://www.instagram.com/cucinabellino/",
    "gmaps_url": "https://maps.google.com/?cid=1062302188132499171"
  },
  "一風堂 梅田店 大阪 大阪 日本": {
    "lat": 34.7034505,
    "lon": 135.5006098,
    "display_name": "〒530-0017 大阪府大阪市北区角田町６−７ 角田町ビル 1F",
    "source": "gmaps_places",
    "place_id": "ChIJ-1JXcpPmAGARkEABvLc_DwE",
    "website": "https://stores.ippudo.com/1022?utm_source=Yext&utm_medium=Yext&utm_campaign=Listings",
    "gmaps_url": "https://maps.google.com/?cid=76349777054351504"
  },
  "HEP FIVE観覧車 大阪 大阪 日本": {
    "lat": 34.7038153,
    "lon": 135.499969,
    "display_name": "〒530-0017 大阪府大阪市北区角田町５−１５ HEP FIVE 7F",
    "source": "gmaps_places",
    "place_id": "ChIJAQDAo5PmAGARcMqvnh2Reqs",
    "website": "https://www.hepfive.jp/ferriswheel",
    "gmaps_url": "https://maps.google.com/?cid=12356348084046776944"
  },
  "大阪市立科学館 大阪 大阪 日本": {
    "lat": 34.691228,
    "lon": 135.4915442,
    "display_name": "〒530-0005 大阪府大阪市北区中之島４丁目２−１",
    "source": "gmaps_places",
    "place_id": "ChIJrVid0PbmAGARVvoeAwYmgg4",
    "website": "https://www.sci-museum.jp/",
    "gmaps_url": "https://maps.google.com/?cid=1045439870767397462"
  },
  "肉のハナマサ 梅田店 大阪 大阪 日本": {
    "lat": 34.60075339999999,
    "lon": 135.5076349,
    "display_name": "〒558-0014 大阪府大阪市住吉区我孫子３丁目５−１７ ふぁみーゆアビコ５",
    "source": "gmaps_places",
    "place_id": "ChIJX7ckJQDdAGARMD_piv0zVqU",
    "website": "https://www.hanamasa.co.jp/shop/osaka/abiko.html",
    "gmaps_url": "https://maps.google.com/?cid=11913767028305510192"
  },
  "ウェスティンホテル大阪 大阪 大阪 日本": {
    "lat": 34.7046167,
    "lon": 135.4897048,
    "display_name": "〒531-0076 大阪府大阪市北区大淀中１丁目１−２０ 新梅田シティ内",
    "source": "gmaps_places",
    "place_id": "ChIJeaipYYjmAGARz_BOp1kkmAU",
    "website": "https://www.marriott.com/ja/hotels/osawi-the-westin-osaka/overview/",
    "gmaps_url": "https://maps.google.com/?cid=403112134127317199"
  },
  "天王寺和牛すき焼き 笑福 大阪 大阪 日本": {
    "lat": 34.725528,
    "lon": 135.5004023,
    "display_name": "〒532-0011 大阪府大阪市淀川区西中島１丁目１３−１３",
    "source": "gmaps_places",
    "place_id": "ChIJDR8lXSTkAGARtnk3DD2KfEc",
    "website": "http://shoufuku.fu-koku.com/",
    "gmaps_url": "https://maps.google.com/?cid=5151144068607605174"
  },
  "天王寺公園 大阪 大阪 日本": {
    "lat": 34.6507248,
    "lon": 135.5104151,
    "display_name": "〒543-0063 大阪府大阪市天王寺区茶臼山町５−５５",
    "source": "gmaps_places",
    "place_id": "ChIJ5_QnR_HdAGARMEh6Uhj3FJA",
    "website": "https://www.tennoji-park.jp/",
    "gmaps_url": "https://maps.google.com/?cid=10382194724830857264"
  },
  "イタリアンダイニング Lino 大阪 大阪 日本": {
    "lat": 35.0131427,
    "lon": 135.7573361,
    "display_name": "〒604-0025 京都府京都市中京区上妙覚寺町２３０−２ 秋山法衣ビル 1F",
    "source": "gmaps_places",
    "place_id": "ChIJT8RML4cIAWARGJ8c_dRAQrU",
    "website": "https://lino-kyoto.com/",
    "gmaps_url": "https://maps.google.com/?cid=13061073152851615512"
  },
  "移動（出発） 新宿 東京 日本": {
    "lat": 35.6896067,
    "lon": 139.7005713,
    "display_name": "〒160-0022 東京都新宿区新宿３丁目３８−１",
    "source": "gmaps_places",
    "place_id": "ChIJH7qx1tCMGGAR1f2s7PGhMhw",
    "website": "http://www.jreast.co.jp/estation/station/info.aspx?StationCd=866",
    "gmaps_url": "https://maps.google.com/?cid=2031864442327465429"
  },
  "新宿御苑訪問 新宿 東京 日本": {
    "lat": 35.6899067,
    "lon": 139.7072829,
    "display_name": "〒160-0022 東京都新宿区新宿２丁目６−３",
    "source": "gmaps_places",
    "place_id": "ChIJUbFTS8OMGGARWW8B393cSvM",
    "website": "https://riei-kaigo.jp/home/shinjyukugyoen/?utm_source=google&utm_medium=maps",
    "gmaps_url": "https://maps.google.com/?cid=17531067344980373337"
  },
  "つけ麺 みやこ 新宿本店でランチ 新宿 東京 日本": {
    "lat": 35.6908663,
    "lon": 139.7037047,
    "display_name": "〒160-0022 東京都新宿区新宿３丁目３１−５ 新宿ペガサス館",
    "source": "gmaps_places",
    "place_id": "ChIJ-ThV_9qMGGARj_VBy37Ywa0",
    "website": "https://www.ramenings.com/hayashida",
    "gmaps_url": "https://maps.google.com/?cid=12520526478154265999"
  },
  "東京都庁展望室訪問 新宿 東京 日本": {
    "lat": 35.6893249,
    "lon": 139.6918129,
    "display_name": "〒160-8001 東京都新宿区西新宿２丁目８−１ 東京都庁第一本庁舎 45階",
    "source": "gmaps_places",
    "place_id": "ChIJ_UlItvCNGGARP1NMx2sFsYg",
    "website": "https://www.zaimu.metro.tokyo.lg.jp/tochousha/goannai/tenbou",
    "gmaps_url": "https://maps.google.com/?cid=9849659820499292991"
  },
  "歌舞伎町散策 新宿 東京 日本": {
    "lat": 35.6941118,
    "lon": 139.7047611,
    "display_name": "〒160-0021 東京都新宿区歌舞伎町",
    "source": "gmaps_places",
    "place_id": "ChIJr7mGZdmMGGARjxoMFeHApXE",
    "website": "http://goldengai.jp/",
    "gmaps_url": "https://maps.google.com/?cid=8189163570396404367"
  },
  "串揚げ田中 新宿店で夕食 新宿 東京 日本": {
    "lat": 35.6918666,
    "lon": 139.7060328,
    "display_name": "〒160-0022 東京都新宿区新宿３丁目１２−４",
    "source": "gmaps_places",
    "place_id": "ChIJ9T1JgtuMGGAR79PKzbP8bnE",
    "website": "https://kushi-tanaka.com/restaurant/detail/shinjuku3?utm_source=google&utm_medium=maps&utm_campaign=gmb",
    "gmaps_url": "https://maps.google.com/?cid=8173748222905996271"
  },
  "ホテルグレイスリー新宿で宿泊 新宿 東京 日本": {
    "lat": 35.6953583,
    "lon": 139.7020345,
    "display_name": "〒160-8466 東京都新宿区歌舞伎町１丁目１９−１",
    "source": "gmaps_places",
    "place_id": "ChIJF-U1JdiMGGARaay7KIrrtZ0",
    "website": "http://gracery.com/shinjuku/",
    "gmaps_url": "https://maps.google.com/?cid=11364248213360716905"
  },
  "浅草寺 浅草 東京 日本": {
    "lat": 35.7147651,
    "lon": 139.7966553,
    "display_name": "〒111-0032 東京都台東区浅草２丁目３−１",
    "source": "gmaps_places",
    "place_id": "ChIJ8T1GpMGOGGARDYGSgpooDWw",
    "website": "https://www.senso-ji.jp/",
    "gmaps_url": "https://maps.google.com/?cid=7785923974874169613"
  },
  "浅草今半 本店 浅草 東京 日本": {
    "lat": 35.7139043,
    "lon": 139.7922209,
    "display_name": "〒111-0035 東京都台東区西浅草３丁目１−１２",
    "source": "gmaps_places",
    "place_id": "ChIJ99yU6b-OGGAR2NfOuMg0JUA",
    "website": "http://www.asakusaimahan.co.jp/",
    "gmaps_url": "https://maps.google.com/?cid=4622158629264349144"
  },
  "東京スカイツリー 浅草 東京 日本": {
    "lat": 35.7100627,
    "lon": 139.8107004,
    "display_name": "〒131-0045 東京都墨田区押上１丁目１−２",
    "source": "gmaps_places",
    "place_id": "ChIJ35ov0dCOGGARKvdDH7NPHX0",
    "website": "https://www.tokyo-skytree.jp/",
    "gmaps_url": "https://maps.google.com/?cid=9015449659807889194"
  },
  "トリトン 浅草店 浅草 東京 日本": {
    "lat": 35.7100517,
    "lon": 139.8129244,
    "display_name": "〒131-0045 東京都墨田区押上１丁目１−２ 東京スカイツリータウン・ソラマチ 6F",
    "source": "gmaps_places",
    "place_id": "ChIJOwR-8daOGGARccFzVsB5U1E",
    "website": "http://toriton-kita1.jp/shop/soramachi/",
    "gmaps_url": "https://maps.google.com/?cid=5860161407130255729"
  },
  "浅草ビューホテル 浅草 東京 日本": {
    "lat": 35.715464,
    "lon": 139.7918707,
    "display_name": "〒111-8765 東京都台東区西浅草３丁目１７−１",
    "source": "gmaps_places",
    "place_id": "ChIJq2y6aZWOGGARoNXiLxzHGcw",
    "website": "https://www.viewhotels.co.jp/asakusa/",
    "gmaps_url": "https://maps.google.com/?cid=14707004982031472032"
  },
  "新宿御苑訪問 東京 東京 日本": {
    "lat": 35.68517629999999,
    "lon": 139.7100517,
    "display_name": "〒160-0014 東京都新宿区内藤町１１",
    "source": "gmaps_places",
    "place_id": "ChIJPyOTG8KMGGARh_IXobWxHmo",
    "website": "https://www.env.go.jp/garden/shinjukugyoen/index.html",
    "gmaps_url": "https://maps.google.com/?cid=7646744610971579015"
  },
  "つけ麺 みやこ 新宿本店でランチ 東京 東京 日本": {
    "lat": 35.6908601,
    "lon": 139.7040323,
    "display_name": "日本、〒160-0022 東京都新宿区新宿３丁目３０−１３",
    "source": "gmaps_geocode",
    "place_id": "ChIJn-npBtuMGGARDuNCprZ59Nk",
    "website": "",
    "gmaps_url": "https://maps.google.com/?cid=15705311625928172302"
  },
  "東京都庁展望室訪問 東京 東京 日本": {
    "lat": 35.6893249,
    "lon": 139.6918129,
    "display_name": "〒160-8001 東京都新宿区西新宿２丁目８−１ 東京都庁第一本庁舎 45階",
    "source": "gmaps_places",
    "place_id": "ChIJ_UlItvCNGGARP1NMx2sFsYg",
    "website": "https://www.zaimu.metro.tokyo.lg.jp/tochousha/goannai/tenbou",
    "gmaps_url": "https://maps.google.com/?cid=9849659820499292991"
  },
  "歌舞伎町散策 東京 東京 日本": {
    "lat": 35.6941118,
    "lon": 139.7047611,
    "display_name": "〒160-0021 東京都新宿区歌舞伎町",
    "source": "gmaps_places",
    "place_id": "ChIJr7mGZdmMGGARjxoMFeHApXE",
    "website": "http://goldengai.jp/",
    "gmaps_url": "https://maps.google.com/?cid=8189163570396404367"
  },
  "串揚げ田中 新宿店で夕食 東京 東京 日本": {
    "lat": 35.6918666,
    "lon": 139.7060328,
    "display_name": "〒160-0022 東京都新宿区新宿３丁目１２−４",
    "source": "gmaps_places",
    "place_id": "ChIJ9T1JgtuMGGAR79PKzbP8bnE",
    "website": "https://kushi-tanaka.com/restaurant/detail/shinjuku3?utm_source=google&utm_medium=maps&utm_campaign=gmb",
    "gmaps_url": "https://maps.google.com/?cid=8173748222905996271"
  },
  "ホテルグレイスリー新宿で宿泊 東京 東京 日本": {
    "lat": 35.6953583,
    "lon": 139.7020345,
    "display_name": "〒160-8466 東京都新宿区歌舞伎町１丁目１９−１",
    "source": "gmaps_places",
    "place_id": "ChIJF-U1JdiMGGARaay7KIrrtZ0",
    "website": "http://gracery.com/shinjuku/",
    "gmaps_url": "https://maps.google.com/?cid=11364248213360716905"
  },
  "浅草寺 東京 東京 日本": {
    "lat": 35.7147651,
    "lon": 139.7966553,
    "display_name": "〒111-0032 東京都台東区浅草２丁目３−１",
    "source": "gmaps_places",
    "place_id": "ChIJ8T1GpMGOGGARDYGSgpooDWw",
    "website": "https://www.senso-ji.jp/",
    "gmaps_url": "https://maps.google.com/?cid=7785923974874169613"
  },
  "浅草今半 本店 東京 東京 日本": {
    "lat": 35.7139043,
    "lon": 139.7922209,
    "display_name": "〒111-0035 東京都台東区西浅草３丁目１−１２",
    "source": "gmaps_places",
    "place_id": "ChIJ99yU6b-OGGAR2NfOuMg0JUA",
    "website": "http://www.asakusaimahan.co.jp/",
    "gmaps_url": "https://maps.google.com/?cid=4622158629264349144"
  },
  "東京スカイツリー 東京 東京 日本": {
    "lat": 35.7100627,
    "lon": 139.8107004,
    "display_name": "〒131-0045 東京都墨田区押上１丁目１−２",
    "source": "gmaps_places",
    "place_id": "ChIJ35ov0dCOGGARKvdDH7NPHX0",
    "website": "https://www.tokyo-skytree.jp/",
    "gmaps_url": "https://maps.google.com/?cid=9015449659807889194"
  },
  "トリトン 浅草店 東京 東京 日本": {
    "lat": 35.7100517,
    "lon": 139.8129244,
    "display_name": "〒131-0045 東京都墨田区押上１丁目１−２ 東京スカイツリータウン・ソラマチ 6F",
    "source": "gmaps_places",
    "place_id": "ChIJOwR-8daOGGARccFzVsB5U1E",
    "website": "http://toriton-kita1.jp/shop/soramachi/",
    "gmaps_url": "https://maps.google.com/?cid=5860161407130255729"
  },
  "新宿御苑散策 新宿 東京 日本": {
    "lat": 35.68517629999999,
    "lon": 139.7100517,
    "display_name": "〒160-0014 東京都新宿区内藤町１１",
    "source": "gmaps_places",
    "place_id": "ChIJPyOTG8KMGGARh_IXobWxHmo",
    "website": "https://www.env.go.jp/garden/shinjukugyoen/index.html",
    "gmaps_url": "https://maps.google.com/?cid=7646744610971579015"
  },
  "新宿グリル満天星 新宿 東京 日本": {
    "lat": 35.6925315,
    "lon": 139.70415,
    "display_name": "〒160-0022 東京都新宿区新宿３丁目１５−１７ ４階",
    "source": "gmaps_places",
    "place_id": "ChIJm26eztuMGGARFMc83bm5XMs",
    "website": "https://shinjuku.manten-boshi.com/?utm_source=google&utm_medium=map",
    "gmaps_url": "https://maps.google.com/?cid=14653791495488587540"
  },
  "歌舞伎町探索 新宿 東京 日本": {
    "lat": 35.6974634,
    "lon": 139.7045436,
    "display_name": "〒160-0021 東京都新宿区歌舞伎町２丁目１９−３",
    "source": "gmaps_places",
    "place_id": "ChIJm5MN5ESNGGAReY-tf0BPXP8",
    "website": "https://www.booking.com/Share-rGHMjkl",
    "gmaps_url": "https://maps.google.com/?cid=18400669315967586169"
  },
  "鳥貴族 新宿店 新宿 東京 日本": {
    "lat": 35.6905531,
    "lon": 139.7027696,
    "display_name": "〒160-0022 東京都新宿区新宿３丁目３４−１１ ピースビル ８階",
    "source": "gmaps_places",
    "place_id": "ChIJd-ajX9qMGGARTsx5kDdaCFU",
    "website": "https://map.torikizoku.co.jp/store/578?utm_source=gmb&utm_medium=maps&utm_campaign=gmb",
    "gmaps_url": "https://maps.google.com/?cid=6127246487731162190"
  },
  "東京都庁展望室 新宿 東京 日本": {
    "lat": 35.689733,
    "lon": 139.6916563,
    "display_name": "〒163-8001 東京都新宿区西新宿２丁目８−１ 東京都庁第一本庁舎 45F",
    "source": "gmaps_places",
    "place_id": "ChIJnctryNSMGGARLv4MknPFseU",
    "website": "https://www.zaimu.metro.tokyo.lg.jp/tochousha/goannai/tenbou",
    "gmaps_url": "https://maps.google.com/?cid=16551227205725519406"
  },
  "新宿グランベルホテル 新宿 東京 日本": {
    "lat": 35.6966367,
    "lon": 139.7056968,
    "display_name": "〒160-0021 東京都新宿区歌舞伎町２丁目１４−５",
    "source": "gmaps_places",
    "place_id": "ChIJX7eJ3NiMGGAR_QyKfZWkAN8",
    "website": "https://www.granbellhotel.jp/shinjuku/",
    "gmaps_url": "https://maps.google.com/?cid=16069024432421211389"
  },
  "浅草寺参拝 浅草 東京 日本": {
    "lat": 35.7147651,
    "lon": 139.7966553,
    "display_name": "〒111-0032 東京都台東区浅草２丁目３−１",
    "source": "gmaps_places",
    "place_id": "ChIJ8T1GpMGOGGARDYGSgpooDWw",
    "website": "https://www.senso-ji.jp/",
    "gmaps_url": "https://maps.google.com/?cid=7785923974874169613"
  },
  "浅草うなぎ やきとり館 浅草 東京 日本": {
    "lat": 35.7124787,
    "lon": 139.7979624,
    "display_name": "〒111-0033 東京都台東区花川戸１丁目６−４",
    "source": "gmaps_places",
    "place_id": "ChIJe-MAnfmPGGARly6qfAlu7NM",
    "website": "https://funachu-saloon.jp/hanakawado/",
    "gmaps_url": "https://maps.google.com/?cid=15270701423531798167"
  },
  "隅田川クルーズ 浅草 東京 日本": {
    "lat": 35.710767,
    "lon": 139.798482,
    "display_name": "〒111-0033 東京都台東区花川戸１丁目１−１",
    "source": "gmaps_places",
    "place_id": "ChIJW-LmMcSOGGAR05jDhoLuXKg",
    "website": "https://www.suijobus.co.jp/",
    "gmaps_url": "https://maps.google.com/?cid=12131833740603398355"
  },
  "浅草花やしき 浅草 東京 日本": {
    "lat": 35.7154609,
    "lon": 139.7948774,
    "display_name": "〒111-0032 東京都台東区浅草２丁目２８−１",
    "source": "gmaps_places",
    "place_id": "ChIJPXcZIsCOGGARsYimyXoHsms",
    "website": "https://www.hanayashiki.net/",
    "gmaps_url": "https://maps.google.com/?cid=7760273331863324849"
  },
  "なかや すし 浅草 東京 日本": {
    "lat": 35.7628565,
    "lon": 139.8491166,
    "display_name": "〒125-0061 東京都葛飾区亀有２丁目６１−４",
    "source": "gmaps_places",
    "place_id": "ChIJM-gzLYSPGGARLT6l5LBT_xc",
    "website": "",
    "gmaps_url": "https://maps.google.com/?cid=1729192801148943917"
  },
  "新宿御苑散策 東京 東京 日本": {
    "lat": 35.68517629999999,
    "lon": 139.7100517,
    "display_name": "〒160-0014 東京都新宿区内藤町１１",
    "source": "gmaps_places",
    "place_id": "ChIJPyOTG8KMGGARh_IXobWxHmo",
    "website": "https://www.env.go.jp/garden/shinjukugyoen/index.html",
    "gmaps_url": "https://maps.google.com/?cid=7646744610971579015"
  },
  "新宿グリル満天星 東京 東京 日本": {
    "lat": 35.6925315,
    "lon": 139.70415,
    "display_name": "〒160-0022 東京都新宿区新宿３丁目１５−１７ ４階",
    "source": "gmaps_places",
    "place_id": "ChIJm26eztuMGGARFMc83bm5XMs",
    "website": "https://shinjuku.manten-boshi.com/?utm_source=google&utm_medium=map",
    "gmaps_url": "https://maps.google.com/?cid=14653791495488587540"
  },
  "歌舞伎町探索 東京 東京 日本": {
    "lat": 35.6941118,
    "lon": 139.7047611,
    "display_name": "〒160-0021 東京都新宿区歌舞伎町",
    "source": "gmaps_places",
    "place_id": "ChIJr7mGZdmMGGARjxoMFeHApXE",
    "website": "http://goldengai.jp/",
    "gmaps_url": "https://maps.google.com/?cid=8189163570396404367"
  },
  "鳥貴族 新宿店 東京 東京 日本": {
    "lat": 35.6905531,
    "lon": 139.7027696,
    "display_name": "〒160-0022 東京都新宿区新宿３丁目３４−１１ ピースビル ８階",
    "source": "gmaps_places",
    "place_id": "ChIJd-ajX9qMGGARTsx5kDdaCFU",
    "website": "https://map.torikizoku.co.jp/store/578?utm_source=gmb&utm_medium=maps&utm_campaign=gmb",
    "gmaps_url": "https://maps.google.com/?cid=6127246487731162190"
  },
  "東京都庁展望室 東京 東京 日本": {
    "lat": 35.689733,
    "lon": 139.6916563,
    "display_name": "〒163-8001 東京都新宿区西新宿２丁目８−１ 東京都庁第一本庁舎 45F",
    "source": "gmaps_places",
    "place_id": "ChIJnctryNSMGGARLv4MknPFseU",
    "website": "https://www.zaimu.metro.tokyo.lg.jp/tochousha/goannai/tenbou",
    "gmaps_url": "https://maps.google.com/?cid=16551227205725519406"
  },
  "新宿グランベルホテル 東京 東京 日本": {
    "lat": 35.6966367,
    "lon": 139.7056968,
    "display_name": "〒160-0021 東京都新宿区歌舞伎町２丁目１４−５",
    "source": "gmaps_places",
    "place_id": "ChIJX7eJ3NiMGGAR_QyKfZWkAN8",
    "website": "https://www.granbellhotel.jp/shinjuku/",
    "gmaps_url": "https://maps.google.com/?cid=16069024432421211389"
  },
  "浅草寺参拝 東京 東京 日本": {
    "lat": 35.7147651,
    "lon": 139.7966553,
    "display_name": "〒111-0032 東京都台東区浅草２丁目３−１",
    "source": "gmaps_places",
    "place_id": "ChIJ8T1GpMGOGGARDYGSgpooDWw",
    "website": "https://www.senso-ji.jp/",
    "gmaps_url": "https://maps.google.com/?cid=7785923974874169613"
  },
  "浅草うなぎ やきとり館 東京 東京 日本": {
    "lat": 35.7124787,
    "lon": 139.7979624,
    "display_name": "〒111-0033 東京都台東区花川戸１丁目６−４",
    "source": "gmaps_places",
    "place_id": "ChIJe-MAnfmPGGARly6qfAlu7NM",
    "website": "https://funachu-saloon.jp/hanakawado/",
    "gmaps_url": "https://maps.google.com/?cid=15270701423531798167"
  },
  "隅田川クルーズ 東京 東京 日本": {
    "lat": 35.6838308,
    "lon": 139.7748219,
    "display_name": "〒103-0027 東京都中央区日本橋１丁目 ９番地先（日本橋川",
    "source": "gmaps_places",
    "place_id": "ChIJtba-Z1aJGGAR-HXopocajFM",
    "website": "https://nihonbashi-cruise.jp/",
    "gmaps_url": "https://maps.google.com/?cid=6020215971810670072"
  },
  "浅草花やしき 東京 東京 日本": {
    "lat": 35.7154609,
    "lon": 139.7948774,
    "display_name": "〒111-0032 東京都台東区浅草２丁目２８−１",
    "source": "gmaps_places",
    "place_id": "ChIJPXcZIsCOGGARsYimyXoHsms",
    "website": "https://www.hanayashiki.net/",
    "gmaps_url": "https://maps.google.com/?cid=7760273331863324849"
  },
  "なかや すし 東京 東京 日本": {
    "lat": 35.7019374,
    "lon": 139.746298,
    "display_name": "〒102-0072 東京都千代田区飯田橋３丁目７−６",
    "source": "gmaps_places",
    "place_id": "ChIJy0yeE0SMGGARPTVaQKnDWcQ",
    "website": "http://nakayazushi.jp/",
    "gmaps_url": "https://maps.google.com/?cid=14148554836057666877"
  },
  "移動（出発） 天王寺 大阪 日本": {
    "lat": 34.6473102,
    "lon": 135.513869,
    "display_name": "〒543-0055 大阪府大阪市天王寺区悲田院町１０−４５",
    "source": "gmaps_places",
    "place_id": "ChIJeUXU_fDdAGARfpqsE9nAtpA",
    "website": "https://www.jr-odekake.net/eki/top.php?id=0620831",
    "gmaps_url": "https://maps.google.com/?cid=10427734025793477246"
  },
  "天王寺あべのハルカス 美味屋 天王寺 大阪 日本": {
    "lat": 34.6460902,
    "lon": 135.5134794,
    "display_name": "〒545-8545 大阪府大阪市阿倍野区阿倍野筋１丁目１−４３",
    "source": "gmaps_places",
    "place_id": "ChIJ-dCc3xndAGAR3GSqJ_WvtPI",
    "website": "https://abenoharukas.d-kintetsu.co.jp/",
    "gmaps_url": "https://maps.google.com/?cid=17488796720453805276"
  },
  "あべのハルカス 天王寺 大阪 日本": {
    "lat": 34.6460706,
    "lon": 135.5134771,
    "display_name": "〒545-6016 大阪府大阪市阿倍野区阿倍野筋１丁目１−４３",
    "source": "gmaps_places",
    "place_id": "ChIJed3mI_DdAGARJyFcpACSbwc",
    "website": "https://www.abenoharukas-300.jp/",
    "gmaps_url": "https://maps.google.com/?cid=535807412135534887"
  },
  "くいだおれ本店 天王寺 大阪 日本": {
    "lat": 34.6686402,
    "lon": 135.502011,
    "display_name": "〒542-0071 大阪府大阪市中央区道頓堀１丁目８−２５",
    "source": "gmaps_places",
    "place_id": "ChIJsSpZSBLnAGARxb6MFLac0wE",
    "website": "",
    "gmaps_url": "https://maps.google.com/?cid=131621119966625477"
  },
  "天王寺うどん 天王寺 大阪 日本": {
    "lat": 34.64778100000001,
    "lon": 135.5145784,
    "display_name": "〒543-0055 大阪府大阪市天王寺区悲田院町１０−４５ 天王寺駅構内阪和線ホーム",
    "source": "gmaps_places",
    "place_id": "ChIJJbT5D_DdAGARgPfjd4dvWuo",
    "website": "https://www.jwfsn.com/business-3/food/menya/",
    "gmaps_url": "https://maps.google.com/?cid=16886932380401792896"
  },
  "大阪市立美術館 天王寺 大阪 日本": {
    "lat": 34.650116,
    "lon": 135.5103522,
    "display_name": "〒543-0063 大阪府大阪市天王寺区茶臼山町１−８２",
    "source": "gmaps_places",
    "place_id": "ChIJAY78L_TdAGAR8Ue_sGJiqUo",
    "website": "https://www.osaka-art-museum.jp/",
    "gmaps_url": "https://maps.google.com/?cid=5379939405882410993"
  },
  "やきとり村 天王寺 大阪 日本": {
    "lat": 34.685881,
    "lon": 135.5143091,
    "display_name": "〒540-0021 大阪府大阪市中央区大手通２丁目２−１４ SEEDS BLDG 2F",
    "source": "gmaps_places",
    "place_id": "ChIJD-dT-87nAGARIlUmNEaLrEc",
    "website": "https://instagram.com/yakitorimimu?igshid=NTc4MTIwNjQ2YQ==",
    "gmaps_url": "https://maps.google.com/?cid=5164656006326015266"
  },
  "ホテルバリタワー大阪天王寺 天王寺 大阪 日本": {
    "lat": 34.647962,
    "lon": 135.5162465,
    "display_name": "〒543-0055 大阪府大阪市天王寺区悲田院町８ ＨＯＴＥＬ＆ＲＥＳＯＲＴ ＢＡＬＩ ＴＯＷＥＲ",
    "source": "gmaps_places",
    "place_id": "ChIJ_8spmvrdAGAROQLFQzXyf0Y",
    "website": "",
    "gmaps_url": "https://maps.google.com/?cid=5080045215281381945"
  },
  "天王寺あべのハルカス 美味屋 大阪 大阪 日本": {
    "lat": 34.6460902,
    "lon": 135.5134794,
    "display_name": "〒545-8545 大阪府大阪市阿倍野区阿倍野筋１丁目１−４３",
    "source": "gmaps_places",
    "place_id": "ChIJ-dCc3xndAGAR3GSqJ_WvtPI",
    "website": "https://abenoharukas.d-kintetsu.co.jp/",
    "gmaps_url": "https://maps.google.com/?cid=17488796720453805276"
  },
  "あべのハルカス 大阪 大阪 日本": {
    "lat": 34.6460706,
    "lon": 135.5134771,
    "display_name": "〒545-6016 大阪府大阪市阿倍野区阿倍野筋１丁目１−４３",
    "source": "gmaps_places",
    "place_id": "ChIJed3mI_DdAGARJyFcpACSbwc",
    "website": "https://www.abenoharukas-300.jp/",
    "gmaps_url": "https://maps.google.com/?cid=535807412135534887"
  },
  "くいだおれ本店 大阪 大阪 日本": {
    "lat": 34.6686402,
    "lon": 135.502011,
    "display_name": "〒542-0071 大阪府大阪市中央区道頓堀１丁目８−２５",
    "source": "gmaps_places",
    "place_id": "ChIJsSpZSBLnAGARxb6MFLac0wE",
    "website": "",
    "gmaps_url": "https://maps.google.com/?cid=131621119966625477"
  },
  "アパホテル〈天王寺駅前〉 大阪 大阪 日本": {
    "lat": 34.647204,
    "lon": 135.511924,
    "display_name": "〒545-0052 大阪府大阪市阿倍野区阿倍野筋１丁目４−１１",
    "source": "gmaps_places",
    "place_id": "ChIJhVVncOndAGARL6BK8DhuhTU",
    "website": "https://www.apahotel.com/hotel/kansai/osaka/tennouji-ekimae/?utm_source=google&utm_medium=maps",
    "gmaps_url": "https://maps.google.com/?cid=3856609846741344303"
  },
  "天王寺うどん 大阪 大阪 日本": {
    "lat": 34.6493378,
    "lon": 135.5182925,
    "display_name": "〒543-0053 大阪府大阪市天王寺区北河堀町２−１０",
    "source": "gmaps_places",
    "place_id": "ChIJAcQMA_vdAGARurFQkcW3eto",
    "website": "https://r.goope.jp/udonwasyo",
    "gmaps_url": "https://maps.google.com/?cid=15743097506601415098"
  },
  "大阪市立美術館 大阪 大阪 日本": {
    "lat": 34.650116,
    "lon": 135.5103522,
    "display_name": "〒543-0063 大阪府大阪市天王寺区茶臼山町１−８２",
    "source": "gmaps_places",
    "place_id": "ChIJAY78L_TdAGAR8Ue_sGJiqUo",
    "website": "https://www.osaka-art-museum.jp/",
    "gmaps_url": "https://maps.google.com/?cid=5379939405882410993"
  },
  "やきとり村 大阪 大阪 日本": {
    "lat": 34.685881,
    "lon": 135.5143091,
    "display_name": "〒540-0021 大阪府大阪市中央区大手通２丁目２−１４ SEEDS BLDG 2F",
    "source": "gmaps_places",
    "place_id": "ChIJD-dT-87nAGARIlUmNEaLrEc",
    "website": "https://instagram.com/yakitorimimu?igshid=NTc4MTIwNjQ2YQ==",
    "gmaps_url": "https://maps.google.com/?cid=5164656006326015266"
  },
  "梅田スカイビル 空中庭園屋内広場 梅田 大阪 日本": {
    "lat": 34.7052993,
    "lon": 135.490172,
    "display_name": "〒531-6039 大阪府大阪市北区大淀中１丁目１−８８ 梅田スカイビル",
    "source": "gmaps_places",
    "place_id": "ChIJbbXqmojmAGARh-OQXHzkwEc",
    "website": "https://www.skybldg.co.jp/observatory/",
    "gmaps_url": "https://maps.google.com/?cid=5170383595001406343"
  },
  "阿波座 魚貝料理 銀座やすし 梅田 大阪 日本": {
    "lat": 34.6802512,
    "lon": 135.4801098,
    "display_name": "〒550-0021 大阪府大阪市西区川口３丁目１−２４",
    "source": "gmaps_places",
    "place_id": "ChIJ0Zqv8qPnAGARcOpU7hqb0JU",
    "website": "https://sites.google.com/view/uozaizakaya",
    "gmaps_url": "https://maps.google.com/?cid=10795298846777076336"
  },
  "ホテルチェックアウト 難波 大阪 日本": {
    "lat": 34.6662133,
    "lon": 135.4960658,
    "display_name": "〒556-0017 大阪府大阪市浪速区湊町１丁目２−１３",
    "source": "gmaps_places",
    "place_id": "ChIJhWyWq93nAGARz5lMwwgmn8M",
    "website": "https://www.apahotel.com/resort/osaka-namba-ekimae-tower/",
    "gmaps_url": "https://maps.google.com/?cid=14096027177771112911"
  },
  "串カツランチ 難波 大阪 日本": {
    "lat": 34.6664399,
    "lon": 135.5019646,
    "display_name": "〒542-0076 大阪府大阪市中央区難波３丁目３−３",
    "source": "gmaps_places",
    "place_id": "ChIJD_jdU2vnAGARY27bhMdmd5Y",
    "website": "https://kd6t800.gorp.jp/",
    "gmaps_url": "https://maps.google.com/?cid=10842247635031256675"
  },
  "ステーキディナー 難波 大阪 日本": {
    "lat": 34.6658279,
    "lon": 135.5034665,
    "display_name": "〒542-0074 大阪府大阪市中央区千日前２丁目８−１７ なんばオリエンタルホテル内 1階",
    "source": "gmaps_places",
    "place_id": "ChIJi8FIbHXnAGARMw0o491Ho4o",
    "website": "https://www.koubegyuu.com/wanomiya-oriental/",
    "gmaps_url": "https://maps.google.com/?cid=9989907416762289459"
  },
  "梅田スカイビル 空中庭園屋内広場 大阪 大阪 日本": {
    "lat": 34.7052993,
    "lon": 135.490172,
    "display_name": "〒531-6039 大阪府大阪市北区大淀中１丁目１−８８ 梅田スカイビル",
    "source": "gmaps_places",
    "place_id": "ChIJbbXqmojmAGARh-OQXHzkwEc",
    "website": "https://www.skybldg.co.jp/observatory/",
    "gmaps_url": "https://maps.google.com/?cid=5170383595001406343"
  },
  "阿波座 魚貝料理 銀座やすし 大阪 大阪 日本": {
    "lat": 34.6802512,
    "lon": 135.4801098,
    "display_name": "〒550-0021 大阪府大阪市西区川口３丁目１−２４",
    "source": "gmaps_places",
    "place_id": "ChIJ0Zqv8qPnAGARcOpU7hqb0JU",
    "website": "https://sites.google.com/view/uozaizakaya",
    "gmaps_url": "https://maps.google.com/?cid=10795298846777076336"
  },
  "串カツランチ 大阪 大阪 日本": {
    "lat": 34.700027,
    "lon": 135.4984031,
    "display_name": "〒530-0001 大阪府大阪市北区梅田１丁目１１−４ 大阪駅前第4ビル 地下2階",
    "source": "gmaps_places",
    "place_id": "ChIJpxExI-3mAGARumB6rIcdWNY",
    "website": "",
    "gmaps_url": "https://maps.google.com/?cid=15445127390618607802"
  },
  "ステーキディナー 大阪 大阪 日本": {
    "lat": 34.7006219,
    "lon": 135.4941733,
    "display_name": "〒530-0001 大阪府大阪市北区梅田３丁目２−２ 5F",
    "source": "gmaps_places",
    "place_id": "ChIJvV7awsLnAGAR58WrEagZjfs",
    "website": "https://benjaminsteakhouse.jp/location/kitteosaka/?utm_source=google&utm_medium=maps",
    "gmaps_url": "https://maps.google.com/?cid=18126172284877784551"
  },