{
  "新宿御苑 新宿 東京 日本": {
    "lat": 35.6891835,
    "lon": 139.7068489,
    "display_name": "新宿御苑, 甲州街道, 新宿二丁目, 新宿, 新宿区, 東京都, 160-8484, 日本"
  },
  "大阪城公園 梅田 大阪 日本": {
    "lat": 35.0235553,
    "lon": 135.7414358,
    "display_name": "千本日活, 上長者町通, 武衛陣町, 高台院町, 上京区, 京都市, 京都府, 602-8288, 日本"
  },
  "大阪 日本": {
    "lat": 34.6937569,
    "lon": 135.5014539,
    "display_name": "大阪市, 大阪府, 日本"
  },
  "大阪城公園 天王寺 大阪 日本": {
    "lat": 34.6852779,
    "lon": 135.5238204,
    "display_name": "大阪城公園案内図, 上町筋, 大阪城, 中央区, 大阪市, 大阪府, 540-0012, 日本"
  },
  "大阪王将 天王寺店 天王寺 大阪 日本": {
    "lat": 35.0235553,
    "lon": 135.7414358,
    "display_name": "千本日活, 上長者町通, 武衛陣町, 高台院町, 上京区, 京都市, 京都府, 602-8288, 日本"
  },
  "大阪城公園 大阪市内全般 大阪 日本": {
    "lat": 35.0235553,
    "lon": 135.7414358,
    "display_name": "千本日活, 上長者町通, 武衛陣町, 高台院町, 上京区, 京都市, 京都府, 602-8288, 日本"
  },
  "大阪天満宮参拝 江坂 大阪 日本": {
    "lat": 35.0235553,
    "lon": 135.7414358,
    "display_name": "千本日活, 上長者町通, 武衛陣町, 高台院町, 上京区, 京都市, 京都府, 602-8288, 日本"
  },
  "天王寺動物園 天王寺 大阪 日本": {
    "lat": 34.6513468,
    "lon": 135.5103907,
    "display_name": "天王寺動物公園事務所, 和氣橋, 茶臼山町, 天王寺区, 大阪市, 大阪府, 543-0063, 日本"
  },
  "大阪城観光 大阪駅・梅田周辺 大阪 日本": {
    "lat": 35.0235553,
    "lon": 135.7414358,
    "display_name": "千本日活, 上長者町通, 武衛陣町, 高台院町, 上京区, 京都市, 京都府, 602-8288, 日本"
  },
  "国立国際美術館 天王寺 大阪 日本": {
    "lat": 35.0088399,
    "lon": 135.7606212,
    "display_name": "NTT西日本 京都支店, 三条通, 桝屋町, 中京区, 京都市, 京都府, 604-8166, 日本"
  },
  "大阪城公園観光 天王寺 大阪 日本": {
    "lat": 35.0235553,
    "lon": 135.7414358,
    "display_name": "千本日活, 上長者町通, 武衛陣町, 高台院町, 上京区, 京都市, 京都府, 602-8288, 日本"
  },
  "天王寺動物園訪問 天王寺 大阪 日本": {
    "lat": 35.0040281,
    "lon": 135.7573085,
    "display_name": "京碁館, 四条通, 郭巨山町, 下京区, 京都市, 京都府, 600-8492, 日本"
  },
  "鶴橋風月 天王寺店 天王寺 大阪 日本": {
    "lat": 35.0040281,
    "lon": 135.7573085,
    "display_name": "京碁館, 四条通, 郭巨山町, 下京区, 京都市, 京都府, 600-8492, 日本"
  },
  "アパホテル〈天王寺駅前〉 天王寺 大阪 日本": {
    "lat": 34.9878004,
    "lon": 135.761548,
    "display_name": "アパホテル京都駅東３０５, 東洞院通, 塩小路町, 下京区, 京都市, 京都府, 600-8213, 日本"
  },
  "ディアモール大阪 難波 大阪 日本": {
    "lat": 34.6999975,
    "lon": 135.4977067,
    "display_name": "ディアモール大阪, 市道南北線, 梅田三丁目, 北区, 大阪市, 大阪府, 530-0001, 日本"
  },
  "なんばパークスシネマ 難波 大阪 日本": {
    "lat": 34.6608934,
    "lon": 135.5024336,
    "display_name": "なんばパークスシネマ, なんばカーニバルモール, 難波中二丁目, 浪速区, 大阪市, 大阪府, 542-8503, 日本"
  },
  "調布 日本": {
    "lat": 35.6517768,
    "lon": 139.5448061,
    "display_name": "調布, 調布駅前広場, 布田四丁目, 調布市, 東京都, 182-0026, 日本"
  },
  "東京 日本": {
    "lat": 35.6768601,
    "lon": 139.7638947,
    "display_name": "東京都, 日本"
  },
  "海鮮料理 魚信 伊勢市 伊勢 日本": {
    "lat": 38.4350934,
    "lon": 141.297101,
    "display_name": "中国海鮮料理 北園, 国道398号, 末広町, 石巻市, 宮城県, 986-0873, 日本"
  },
  "伊勢神宮 外宮 伊勢市 伊勢 日本": {
    "lat": 34.4873519,
    "lon": 136.7036975,
    "display_name": "伊勢神宮 外宮, 鳥羽松阪線, 本町, 伊勢市, 三重県, 516-0037, 日本"
  },
  "伊勢 日本": {
    "lat": 35.837787,
    "lon": 136.648485,
    "display_name": "伊勢, 大野市, 福井県, 日本"
  },
  "博多一幸舎 博多 福岡 日本": {
    "lat": 33.5882444,
    "lon": 130.4170779,
    "display_name": "博多一幸舎 総本店, 12, 博多区, 福岡市, 福岡県, 812-0011, 日本"
  },
  "ホテル日航福岡 博多 福岡 日本": {
    "lat": 33.5915085,
    "lon": 130.4171923,
    "display_name": "ホテル日航福岡, 大博通り, 博多駅前二丁目, 博多区, 福岡市, 福岡県, 812-0011, 日本"
  },
  "福岡 日本": {
    "lat": 36.7080711,
    "lon": 136.9317779,
    "display_name": "福岡, 福岡停車場線, 福岡町福岡, 福岡, 高岡市, 富山県, 939-0192, 日本"
  },
  "沖縄 日本": {
    "lat": 26.5707754,
    "lon": 128.0255901,
    "display_name": "沖縄県, 日本"
  },
  "アパホテル〈天王寺駅北〉 天王寺 大阪 日本": {
    "lat": 34.9878004,
    "lon": 135.761548,
    "display_name": "アパホテル京都駅東３０５, 東洞院通, 塩小路町, 下京区, 京都市, 京都府, 600-8213, 日本"
  },
  "祇園散策 祇園 京都 日本": {
    "lat": 35.0040011,
    "lon": 135.7568619,
    "display_name": "日本産業カウンセラー協会, 新町通, 御影町, 中京区, 京都市, 京都府, 600-8492, 日本"
  },
  "金閣寺観光 金閣寺 京都 日本": {
    "lat": 35.0235553,
    "lon": 135.7414358,
    "display_name": "千本日活, 上長者町通, 武衛陣町, 高台院町, 上京区, 京都市, 京都府, 602-8288, 日本"
  },
  "金閣寺前 銀閣寺 金閣寺 京都 日本": {
    "lat": 35.0235553,
    "lon": 135.7414358,
    "display_name": "千本日活, 上長者町通, 武衛陣町, 高台院町, 上京区, 京都市, 京都府, 602-8288, 日本"
  },
  "京都 日本": {
    "lat": 34.9861908,
    "lon": 135.7601217,
    "display_name": "京都, 東洞院通, 東塩小路高倉町, 下京区, 京都市, 京都府, 600-8213, 日本"
  }
}
